,american_name,country,lat,long,conf_count,date,cured_count,dead_count,country_2
0,Anhui,China,31.8257,117.2264,1,2020-01-22,0,0,China
1,Beijing,China,40.1824,116.4142,14,2020-01-22,0,0,China
2,Chongqing,China,30.0572,107.874,6,2020-01-22,0,0,China
3,Fujian,China,26.0789,117.9874,1,2020-01-22,0,0,China
4,Gansu,China,36.0611,103.8343,0,2020-01-22,0,0,China
5,Guangdong,China,23.3417,113.4244,26,2020-01-22,0,0,China
6,Guangxi,China,23.8298,108.7881,2,2020-01-22,0,0,China
7,Guizhou,China,26.8154,106.8748,1,2020-01-22,0,0,China
8,Hainan,China,19.1959,109.7453,4,2020-01-22,0,0,China
9,Hebei,China,38.0428,114.5149,1,2020-01-22,0,0,China
10,Heilongjiang,China,47.861999999999995,127.7615,0,2020-01-22,0,0,China
11,Henan,China,33.882020000000004,113.61399999999999,5,2020-01-22,0,0,China
12,Hubei,China,30.9756,112.2707,444,2020-01-22,28,17,China
13,Hunan,China,27.6104,111.7088,4,2020-01-22,0,0,China
14,Inner Mongolia,China,44.0935,113.9448,0,2020-01-22,0,0,China
15,Jiangsu,China,32.9711,119.455,1,2020-01-22,0,0,China
16,Jiangxi,China,27.614,115.7221,2,2020-01-22,0,0,China
17,Jilin,China,43.6661,126.1923,0,2020-01-22,0,0,China
18,Liaoning,China,41.2956,122.6085,2,2020-01-22,0,0,China
19,Ningxia,China,37.2692,106.1655,1,2020-01-22,0,0,China
20,Qinghai,China,35.7452,95.9956,0,2020-01-22,0,0,China
21,Shaanxi,China,35.1917,108.8701,0,2020-01-22,0,0,China
22,Shandong,China,36.3427,118.1498,2,2020-01-22,0,0,China
23,Shanghai,China,31.201999999999998,121.4491,9,2020-01-22,0,0,China
24,Shanxi,China,37.5777,112.2922,1,2020-01-22,0,0,China
25,Sichuan,China,30.6171,102.7103,5,2020-01-22,0,0,China
26,Tianjin,China,39.3054,117.323,4,2020-01-22,0,0,China
27,Tibet,China,31.6927,88.0924,0,2020-01-22,0,0,China
28,Xinjiang,China,41.1129,85.2401,0,2020-01-22,0,0,China
29,Yunnan,China,24.974,101.48700000000001,1,2020-01-22,0,0,China
30,Zhejiang,China,29.1832,120.0934,10,2020-01-22,0,0,China
31,Thailand,Thailand,15.0,101.0,2,2020-01-22,0,0,Thailand
32,Japan,Japan,36.0,138.0,2,2020-01-22,0,0,Japan
33,South Korea,South Korea,36.0,128.0,1,2020-01-22,0,0,South Korea
34,Taiwan,Taiwan,23.7,121.0,1,2020-01-22,0,0,Taiwan
35,"King County, WA",United States of America,47.6062,-122.3321,1,2020-01-22,0,0,United States of America
36,"Cook County, IL",United States of America,41.7377,-87.6976,0,2020-01-22,0,0,United States of America
37,"Tempe, AZ",United States of America,33.4255,-111.94,0,2020-01-22,0,0,United States of America
38,Macau,Macau,22.1667,113.55,1,2020-01-22,0,0,Macau
39,Hong Kong,Hong Kong,22.3,114.2,0,2020-01-22,0,0,Hong Kong
40,Singapore,Singapore,1.2833,103.8333,0,2020-01-22,0,0,Singapore
41,Vietnam,Vietnam,16.0,108.0,0,2020-01-22,0,0,Vietnam
42,France,France,47.0,2.0,0,2020-01-22,0,0,France
43,Nepal,Nepal,28.1667,84.25,0,2020-01-22,0,0,Nepal
44,Malaysia,Malaysia,2.5,112.5,0,2020-01-22,0,0,Malaysia
45,"Toronto, ON",Canada,43.6532,-79.3832,0,2020-01-22,0,0,Canada
46,British Columbia,Canada,49.2827,-123.1207,0,2020-01-22,0,0,Canada
47,"Orange, CA",United States of America,33.7879,-117.8531,0,2020-01-22,0,0,United States of America
48,"Los Angeles, CA",United States of America,34.0522,-118.2437,0,2020-01-22,0,0,United States of America
49,New South Wales,Australia,-33.8688,151.2093,0,2020-01-22,0,0,Australia
50,Victoria,Australia,-37.8136,144.9631,0,2020-01-22,0,0,Australia
51,Queensland,Australia,-28.0167,153.4,0,2020-01-22,0,0,Australia
52,Cambodia,Cambodia,11.55,104.9167,0,2020-01-22,0,0,Cambodia
53,Sri Lanka,Sri Lanka,7.0,81.0,0,2020-01-22,0,0,Sri Lanka
54,Germany,Germany,51.0,9.0,0,2020-01-22,0,0,Germany
55,Finland,Finland,64.0,26.0,0,2020-01-22,0,0,Finland
56,United Arab Emirates,United Arab Emirates,24.0,54.0,0,2020-01-22,0,0,United Arab Emirates
57,Philippines,Philippines,13.0,122.0,0,2020-01-22,0,0,Philippines
58,India,India,21.0,78.0,0,2020-01-22,0,0,India
59,"London, ON",Canada,42.9849,-81.2453,0,2020-01-22,0,0,Canada
60,Italy,Italy,43.0,12.0,0,2020-01-22,0,0,Italy
61,UK,UK,55.0,-3.0,0,2020-01-22,0,0,UK
62,Russia,Russia,60.0,90.0,0,2020-01-22,0,0,Russia
63,Sweden,Sweden,63.0,16.0,0,2020-01-22,0,0,Sweden
64,"Santa Clara, CA",United States of America,37.3541,-121.9552,0,2020-01-22,0,0,United States of America
65,Spain,Spain,40.0,-4.0,0,2020-01-22,0,0,Spain
66,South Australia,Australia,-34.9285,138.6007,0,2020-01-22,0,0,Australia
67,"Boston, MA",United States of America,42.3601,-71.0589,0,2020-01-22,0,0,United States of America
68,"San Benito, CA",United States of America,36.5761,-120.9876,0,2020-01-22,0,0,United States of America
69,Belgium,Belgium,50.8333,4.0,0,2020-01-22,0,0,Belgium
70,"Madison, WI",United States of America,43.0731,-89.4012,0,2020-01-22,0,0,United States of America
71,Diamond Princess cruise ship,Others,35.4437,139.638,0,2020-01-22,0,0,Others
72,"San Diego County, CA",United States of America,32.7157,-117.1611,0,2020-01-22,0,0,United States of America
73,"San Antonio, TX",United States of America,29.4241,-98.4936,0,2020-01-22,0,0,United States of America
74,Egypt,Egypt,26.0,30.0,0,2020-01-22,0,0,Egypt
75,Iran,Iran,32.0,53.0,0,2020-01-22,0,0,Iran
76,"Omaha, NE (From Diamond Princess)",United States of America,41.2545,-95.9758,0,2020-01-22,0,0,United States of America
77,"Travis, CA (From Diamond Princess)",United States of America,38.2721,-121.9399,0,2020-01-22,0,0,United States of America
78,From Diamond Princess,Australia,35.4437,139.638,0,2020-01-22,0,0,Australia
79,"Lackland, TX (From Diamond Princess)",United States of America,29.3829,-98.6134,0,2020-01-22,0,0,United States of America
80,Lebanon,Lebanon,33.8547,35.8623,0,2020-01-22,0,0,Lebanon
81,"Humboldt County, CA",United States of America,40.745,-123.8695,0,2020-01-22,0,0,United States of America
82,"Sacramento County, CA",United States of America,38.4747,-121.3542,0,2020-01-22,0,0,United States of America
83,Iraq,Iraq,33.0,44.0,0,2020-01-22,0,0,Iraq
84,Unassigned Location (From Diamond Princess),United States of America,35.4437,139.638,0,2020-01-22,0,0,United States of America
85,Oman,Oman,21.0,57.0,0,2020-01-22,0,0,Oman
86,Afghanistan,Afghanistan,33.0,65.0,0,2020-01-22,0,0,Afghanistan
87,Bahrain,Bahrain,26.0275,50.55,0,2020-01-22,0,0,Bahrain
88,Kuwait,Kuwait,29.5,47.75,0,2020-01-22,0,0,Kuwait
89,Algeria,Algeria,28.0339,1.6596,0,2020-01-22,0,0,Algeria
90,Croatia,Croatia,45.1,15.2,0,2020-01-22,0,0,Croatia
91,Switzerland,Switzerland,46.8182,8.2275,0,2020-01-22,0,0,Switzerland
92,Austria,Austria,47.5162,14.5501,0,2020-01-22,0,0,Austria
93,Israel,Israel,31.0,35.0,0,2020-01-22,0,0,Israel
94,Pakistan,Pakistan,30.3753,69.3451,0,2020-01-22,0,0,Pakistan
95,Brazil,Brazil,-14.235,-51.9253,0,2020-01-22,0,0,Brazil
96,Georgia,Georgia,42.3154,43.3569,0,2020-01-22,0,0,Georgia
97,Greece,Greece,39.0742,21.8243,0,2020-01-22,0,0,Greece
98,North Macedonia,North Macedonia,41.6086,21.7453,0,2020-01-22,0,0,North Macedonia
99,Norway,Norway,60.472,8.4689,0,2020-01-22,0,0,Norway
100,Romania,Romania,45.9432,24.9668,0,2020-01-22,0,0,Romania
101,Denmark,Denmark,56.2639,9.5018,0,2020-01-22,0,0,Denmark
102,Estonia,Estonia,58.5953,25.0136,0,2020-01-22,0,0,Estonia
103,Netherlands,Netherlands,52.1326,5.2913,0,2020-01-22,0,0,Netherlands
104,San Marino,San Marino,43.9424,12.4578,0,2020-01-22,0,0,San Marino
105,Belarus,Belarus,53.7098,27.9534,0,2020-01-22,0,0,Belarus
106," Montreal, QC",Canada,45.5017,-73.5673,0,2020-01-22,0,0,Canada
107,Iceland,Iceland,64.9631,-19.0208,0,2020-01-22,0,0,Iceland
108,Lithuania,Lithuania,55.1694,23.8813,0,2020-01-22,0,0,Lithuania
109,Mexico,Mexico,23.6345,-102.5528,0,2020-01-22,0,0,Mexico
110,New Zealand,New Zealand,-40.9006,174.886,0,2020-01-22,0,0,New Zealand
111,Nigeria,Nigeria,9.082,8.6753,0,2020-01-22,0,0,Nigeria
112,Western Australia,Australia,-31.9505,115.8605,0,2020-01-22,0,0,Australia
113,Ireland,Ireland,53.1424,-7.6921,0,2020-01-22,0,0,Ireland
114,Luxembourg,Luxembourg,49.8153,6.1296,0,2020-01-22,0,0,Luxembourg
115,Monaco,Monaco,43.7333,7.4167,0,2020-01-22,0,0,Monaco
116,Qatar,Qatar,25.3548,51.1839,0,2020-01-22,0,0,Qatar
117,"Snohomish County, WA",United States of America,48.033,-121.8339,0,2020-01-22,0,0,United States of America
118,Ecuador,Ecuador,-1.8312,-78.1834,0,2020-01-22,0,0,Ecuador
119,Azerbaijan,Azerbaijan,40.1431,47.5769,0,2020-01-22,0,0,Azerbaijan
120,Czech Republic,Czech Republic,49.8175,15.472999999999999,0,2020-01-22,0,0,Czech Republic
121,Armenia,Armenia,40.0691,45.0382,0,2020-01-22,0,0,Armenia
122,Dominican Republic,Dominican Republic,18.7357,-70.1627,0,2020-01-22,0,0,Dominican Republic
123,"Providence, RI",United States of America,41.824,-71.4128,0,2020-01-22,0,0,United States of America
124,Indonesia,Indonesia,-0.7893,113.9213,0,2020-01-22,0,0,Indonesia
125,Portugal,Portugal,39.3999,-8.2245,0,2020-01-22,0,0,Portugal
126,Andorra,Andorra,42.5063,1.5218,0,2020-01-22,0,0,Andorra
127,Tasmania,Australia,-41.4545,145.9707,0,2020-01-22,0,0,Australia
128,Latvia,Latvia,56.8796,24.6032,0,2020-01-22,0,0,Latvia
129,Morocco,Morocco,31.7917,-7.0926,0,2020-01-22,0,0,Morocco
130,Saudi Arabia,Saudi Arabia,24.0,45.0,0,2020-01-22,0,0,Saudi Arabia
131,Senegal,Senegal,14.4974,-14.4524,0,2020-01-22,0,0,Senegal
132,"Grafton County, NH",United States of America,43.9088,-71.82600000000001,0,2020-01-22,0,0,United States of America
133,"Hillsborough, FL",United States of America,27.9904,-82.3018,0,2020-01-22,0,0,United States of America
134,"New York City, NY",United States of America,40.7128,-74.006,0,2020-01-22,0,0,United States of America
135,"Placer County, CA",United States of America,39.0916,-120.8039,0,2020-01-22,0,0,United States of America
136,"San Mateo, CA",United States of America,37.563,-122.3255,0,2020-01-22,0,0,United States of America
137,"Sarasota, FL",United States of America,27.3364,-82.5307,0,2020-01-22,0,0,United States of America
138,"Sonoma County, CA",United States of America,38.578,-122.9888,0,2020-01-22,0,0,United States of America
139,"Umatilla, OR",United States of America,45.775,-118.7606,0,2020-01-22,0,0,United States of America
140,"Fulton County, GA",United States of America,33.8034,-84.3963,0,2020-01-22,0,0,United States of America
141,"Washington County, OR",United States of America,45.547,-123.1386,0,2020-01-22,0,0,United States of America
142,Argentina,Argentina,-38.4161,-63.6167,0,2020-01-22,0,0,Argentina
143,Chile,Chile,-35.6751,-71.543,0,2020-01-22,0,0,Chile
144,Jordan,Jordan,31.24,36.51,0,2020-01-22,0,0,Jordan
145," Norfolk County, MA",United States of America,42.1767,-71.1449,0,2020-01-22,0,0,United States of America
146,"Berkeley, CA",United States of America,37.8715,-122.273,0,2020-01-22,0,0,United States of America
147,"Maricopa County, AZ",United States of America,33.2918,-112.4291,0,2020-01-22,0,0,United States of America
148,"Wake County, NC",United States of America,35.8032,-78.5661,0,2020-01-22,0,0,United States of America
149,"Westchester County, NY",United States of America,41.122,-73.7949,0,2020-01-22,0,0,United States of America
150,Ukraine,Ukraine,48.3794,31.1656,0,2020-01-22,0,0,Ukraine
151,Anhui,China,31.8257,117.2264,9,2020-01-23,0,0,China
152,Beijing,China,40.1824,116.4142,22,2020-01-23,0,0,China
153,Chongqing,China,30.0572,107.874,9,2020-01-23,0,0,China
154,Fujian,China,26.0789,117.9874,5,2020-01-23,0,0,China
155,Gansu,China,36.0611,103.8343,2,2020-01-23,0,0,China
156,Guangdong,China,23.3417,113.4244,32,2020-01-23,2,0,China
157,Guangxi,China,23.8298,108.7881,5,2020-01-23,0,0,China
158,Guizhou,China,26.8154,106.8748,3,2020-01-23,0,0,China
159,Hainan,China,19.1959,109.7453,5,2020-01-23,0,0,China
160,Hebei,China,38.0428,114.5149,1,2020-01-23,0,1,China
161,Heilongjiang,China,47.861999999999995,127.7615,2,2020-01-23,0,0,China
162,Henan,China,33.882020000000004,113.61399999999999,5,2020-01-23,0,0,China
163,Hubei,China,30.9756,112.2707,444,2020-01-23,28,17,China
164,Hunan,China,27.6104,111.7088,9,2020-01-23,0,0,China
165,Inner Mongolia,China,44.0935,113.9448,0,2020-01-23,0,0,China
166,Jiangsu,China,32.9711,119.455,5,2020-01-23,0,0,China
167,Jiangxi,China,27.614,115.7221,7,2020-01-23,0,0,China
168,Jilin,China,43.6661,126.1923,1,2020-01-23,0,0,China
169,Liaoning,China,41.2956,122.6085,3,2020-01-23,0,0,China
170,Ningxia,China,37.2692,106.1655,1,2020-01-23,0,0,China
171,Qinghai,China,35.7452,95.9956,0,2020-01-23,0,0,China
172,Shaanxi,China,35.1917,108.8701,3,2020-01-23,0,0,China
173,Shandong,China,36.3427,118.1498,6,2020-01-23,0,0,China
174,Shanghai,China,31.201999999999998,121.4491,16,2020-01-23,0,0,China
175,Shanxi,China,37.5777,112.2922,1,2020-01-23,0,0,China
176,Sichuan,China,30.6171,102.7103,8,2020-01-23,0,0,China
177,Tianjin,China,39.3054,117.323,4,2020-01-23,0,0,China
178,Tibet,China,31.6927,88.0924,0,2020-01-23,0,0,China
179,Xinjiang,China,41.1129,85.2401,2,2020-01-23,0,0,China
180,Yunnan,China,24.974,101.48700000000001,2,2020-01-23,0,0,China
181,Zhejiang,China,29.1832,120.0934,27,2020-01-23,0,0,China
182,Thailand,Thailand,15.0,101.0,3,2020-01-23,0,0,Thailand
183,Japan,Japan,36.0,138.0,1,2020-01-23,0,0,Japan
184,South Korea,South Korea,36.0,128.0,1,2020-01-23,0,0,South Korea
185,Taiwan,Taiwan,23.7,121.0,1,2020-01-23,0,0,Taiwan
186,"King County, WA",United States of America,47.6062,-122.3321,1,2020-01-23,0,0,United States of America
187,"Cook County, IL",United States of America,41.7377,-87.6976,0,2020-01-23,0,0,United States of America
188,"Tempe, AZ",United States of America,33.4255,-111.94,0,2020-01-23,0,0,United States of America
189,Macau,Macau,22.1667,113.55,2,2020-01-23,0,0,Macau
190,Hong Kong,Hong Kong,22.3,114.2,2,2020-01-23,0,0,Hong Kong
191,Singapore,Singapore,1.2833,103.8333,1,2020-01-23,0,0,Singapore
192,Vietnam,Vietnam,16.0,108.0,2,2020-01-23,0,0,Vietnam
193,France,France,47.0,2.0,0,2020-01-23,0,0,France
194,Nepal,Nepal,28.1667,84.25,0,2020-01-23,0,0,Nepal
195,Malaysia,Malaysia,2.5,112.5,0,2020-01-23,0,0,Malaysia
196,"Toronto, ON",Canada,43.6532,-79.3832,0,2020-01-23,0,0,Canada
197,British Columbia,Canada,49.2827,-123.1207,0,2020-01-23,0,0,Canada
198,"Orange, CA",United States of America,33.7879,-117.8531,0,2020-01-23,0,0,United States of America
199,"Los Angeles, CA",United States of America,34.0522,-118.2437,0,2020-01-23,0,0,United States of America
200,New South Wales,Australia,-33.8688,151.2093,0,2020-01-23,0,0,Australia
201,Victoria,Australia,-37.8136,144.9631,0,2020-01-23,0,0,Australia
202,Queensland,Australia,-28.0167,153.4,0,2020-01-23,0,0,Australia
203,Cambodia,Cambodia,11.55,104.9167,0,2020-01-23,0,0,Cambodia
204,Sri Lanka,Sri Lanka,7.0,81.0,0,2020-01-23,0,0,Sri Lanka
205,Germany,Germany,51.0,9.0,0,2020-01-23,0,0,Germany
206,Finland,Finland,64.0,26.0,0,2020-01-23,0,0,Finland
207,United Arab Emirates,United Arab Emirates,24.0,54.0,0,2020-01-23,0,0,United Arab Emirates
208,Philippines,Philippines,13.0,122.0,0,2020-01-23,0,0,Philippines
209,India,India,21.0,78.0,0,2020-01-23,0,0,India
210,"London, ON",Canada,42.9849,-81.2453,0,2020-01-23,0,0,Canada
211,Italy,Italy,43.0,12.0,0,2020-01-23,0,0,Italy
212,UK,UK,55.0,-3.0,0,2020-01-23,0,0,UK
213,Russia,Russia,60.0,90.0,0,2020-01-23,0,0,Russia
214,Sweden,Sweden,63.0,16.0,0,2020-01-23,0,0,Sweden
215,"Santa Clara, CA",United States of America,37.3541,-121.9552,0,2020-01-23,0,0,United States of America
216,Spain,Spain,40.0,-4.0,0,2020-01-23,0,0,Spain
217,South Australia,Australia,-34.9285,138.6007,0,2020-01-23,0,0,Australia
218,"Boston, MA",United States of America,42.3601,-71.0589,0,2020-01-23,0,0,United States of America
219,"San Benito, CA",United States of America,36.5761,-120.9876,0,2020-01-23,0,0,United States of America
220,Belgium,Belgium,50.8333,4.0,0,2020-01-23,0,0,Belgium
221,"Madison, WI",United States of America,43.0731,-89.4012,0,2020-01-23,0,0,United States of America
222,Diamond Princess cruise ship,Others,35.4437,139.638,0,2020-01-23,0,0,Others
223,"San Diego County, CA",United States of America,32.7157,-117.1611,0,2020-01-23,0,0,United States of America
224,"San Antonio, TX",United States of America,29.4241,-98.4936,0,2020-01-23,0,0,United States of America
225,Egypt,Egypt,26.0,30.0,0,2020-01-23,0,0,Egypt
226,Iran,Iran,32.0,53.0,0,2020-01-23,0,0,Iran
227,"Omaha, NE (From Diamond Princess)",United States of America,41.2545,-95.9758,0,2020-01-23,0,0,United States of America
228,"Travis, CA (From Diamond Princess)",United States of America,38.2721,-121.9399,0,2020-01-23,0,0,United States of America
229,From Diamond Princess,Australia,35.4437,139.638,0,2020-01-23,0,0,Australia
230,"Lackland, TX (From Diamond Princess)",United States of America,29.3829,-98.6134,0,2020-01-23,0,0,United States of America
231,Lebanon,Lebanon,33.8547,35.8623,0,2020-01-23,0,0,Lebanon
232,"Humboldt County, CA",United States of America,40.745,-123.8695,0,2020-01-23,0,0,United States of America
233,"Sacramento County, CA",United States of America,38.4747,-121.3542,0,2020-01-23,0,0,United States of America
234,Iraq,Iraq,33.0,44.0,0,2020-01-23,0,0,Iraq
235,Unassigned Location (From Diamond Princess),United States of America,35.4437,139.638,0,2020-01-23,0,0,United States of America
236,Oman,Oman,21.0,57.0,0,2020-01-23,0,0,Oman
237,Afghanistan,Afghanistan,33.0,65.0,0,2020-01-23,0,0,Afghanistan
238,Bahrain,Bahrain,26.0275,50.55,0,2020-01-23,0,0,Bahrain
239,Kuwait,Kuwait,29.5,47.75,0,2020-01-23,0,0,Kuwait
240,Algeria,Algeria,28.0339,1.6596,0,2020-01-23,0,0,Algeria
241,Croatia,Croatia,45.1,15.2,0,2020-01-23,0,0,Croatia
242,Switzerland,Switzerland,46.8182,8.2275,0,2020-01-23,0,0,Switzerland
243,Austria,Austria,47.5162,14.5501,0,2020-01-23,0,0,Austria
244,Israel,Israel,31.0,35.0,0,2020-01-23,0,0,Israel
245,Pakistan,Pakistan,30.3753,69.3451,0,2020-01-23,0,0,Pakistan
246,Brazil,Brazil,-14.235,-51.9253,0,2020-01-23,0,0,Brazil
247,Georgia,Georgia,42.3154,43.3569,0,2020-01-23,0,0,Georgia
248,Greece,Greece,39.0742,21.8243,0,2020-01-23,0,0,Greece
249,North Macedonia,North Macedonia,41.6086,21.7453,0,2020-01-23,0,0,North Macedonia
250,Norway,Norway,60.472,8.4689,0,2020-01-23,0,0,Norway
251,Romania,Romania,45.9432,24.9668,0,2020-01-23,0,0,Romania
252,Denmark,Denmark,56.2639,9.5018,0,2020-01-23,0,0,Denmark
253,Estonia,Estonia,58.5953,25.0136,0,2020-01-23,0,0,Estonia
254,Netherlands,Netherlands,52.1326,5.2913,0,2020-01-23,0,0,Netherlands
255,San Marino,San Marino,43.9424,12.4578,0,2020-01-23,0,0,San Marino
256,Belarus,Belarus,53.7098,27.9534,0,2020-01-23,0,0,Belarus
257," Montreal, QC",Canada,45.5017,-73.5673,0,2020-01-23,0,0,Canada
258,Iceland,Iceland,64.9631,-19.0208,0,2020-01-23,0,0,Iceland
259,Lithuania,Lithuania,55.1694,23.8813,0,2020-01-23,0,0,Lithuania
260,Mexico,Mexico,23.6345,-102.5528,0,2020-01-23,0,0,Mexico
261,New Zealand,New Zealand,-40.9006,174.886,0,2020-01-23,0,0,New Zealand
262,Nigeria,Nigeria,9.082,8.6753,0,2020-01-23,0,0,Nigeria
263,Western Australia,Australia,-31.9505,115.8605,0,2020-01-23,0,0,Australia
264,Ireland,Ireland,53.1424,-7.6921,0,2020-01-23,0,0,Ireland
265,Luxembourg,Luxembourg,49.8153,6.1296,0,2020-01-23,0,0,Luxembourg
266,Monaco,Monaco,43.7333,7.4167,0,2020-01-23,0,0,Monaco
267,Qatar,Qatar,25.3548,51.1839,0,2020-01-23,0,0,Qatar
268,"Snohomish County, WA",United States of America,48.033,-121.8339,0,2020-01-23,0,0,United States of America
269,Ecuador,Ecuador,-1.8312,-78.1834,0,2020-01-23,0,0,Ecuador
270,Azerbaijan,Azerbaijan,40.1431,47.5769,0,2020-01-23,0,0,Azerbaijan
271,Czech Republic,Czech Republic,49.8175,15.472999999999999,0,2020-01-23,0,0,Czech Republic
272,Armenia,Armenia,40.0691,45.0382,0,2020-01-23,0,0,Armenia
273,Dominican Republic,Dominican Republic,18.7357,-70.1627,0,2020-01-23,0,0,Dominican Republic
274,"Providence, RI",United States of America,41.824,-71.4128,0,2020-01-23,0,0,United States of America
275,Indonesia,Indonesia,-0.7893,113.9213,0,2020-01-23,0,0,Indonesia
276,Portugal,Portugal,39.3999,-8.2245,0,2020-01-23,0,0,Portugal
277,Andorra,Andorra,42.5063,1.5218,0,2020-01-23,0,0,Andorra
278,Tasmania,Australia,-41.4545,145.9707,0,2020-01-23,0,0,Australia
279,Latvia,Latvia,56.8796,24.6032,0,2020-01-23,0,0,Latvia
280,Morocco,Morocco,31.7917,-7.0926,0,2020-01-23,0,0,Morocco
281,Saudi Arabia,Saudi Arabia,24.0,45.0,0,2020-01-23,0,0,Saudi Arabia
282,Senegal,Senegal,14.4974,-14.4524,0,2020-01-23,0,0,Senegal
283,"Grafton County, NH",United States of America,43.9088,-71.82600000000001,0,2020-01-23,0,0,United States of America
284,"Hillsborough, FL",United States of America,27.9904,-82.3018,0,2020-01-23,0,0,United States of America
285,"New York City, NY",United States of America,40.7128,-74.006,0,2020-01-23,0,0,United States of America
286,"Placer County, CA",United States of America,39.0916,-120.8039,0,2020-01-23,0,0,United States of America
287,"San Mateo, CA",United States of America,37.563,-122.3255,0,2020-01-23,0,0,United States of America
288,"Sarasota, FL",United States of America,27.3364,-82.5307,0,2020-01-23,0,0,United States of America
289,"Sonoma County, CA",United States of America,38.578,-122.9888,0,2020-01-23,0,0,United States of America
290,"Umatilla, OR",United States of America,45.775,-118.7606,0,2020-01-23,0,0,United States of America
291,"Fulton County, GA",United States of America,33.8034,-84.3963,0,2020-01-23,0,0,United States of America
292,"Washington County, OR",United States of America,45.547,-123.1386,0,2020-01-23,0,0,United States of America
293,Argentina,Argentina,-38.4161,-63.6167,0,2020-01-23,0,0,Argentina
294,Chile,Chile,-35.6751,-71.543,0,2020-01-23,0,0,Chile
295,Jordan,Jordan,31.24,36.51,0,2020-01-23,0,0,Jordan
296," Norfolk County, MA",United States of America,42.1767,-71.1449,0,2020-01-23,0,0,United States of America
297,"Berkeley, CA",United States of America,37.8715,-122.273,0,2020-01-23,0,0,United States of America
298,"Maricopa County, AZ",United States of America,33.2918,-112.4291,0,2020-01-23,0,0,United States of America
299,"Wake County, NC",United States of America,35.8032,-78.5661,0,2020-01-23,0,0,United States of America
300,"Westchester County, NY",United States of America,41.122,-73.7949,0,2020-01-23,0,0,United States of America
301,Ukraine,Ukraine,48.3794,31.1656,0,2020-01-23,0,0,Ukraine
302,Anhui,China,31.8257,117.2264,15,2020-01-24,0,0,China
303,Beijing,China,40.1824,116.4142,36,2020-01-24,1,0,China
304,Chongqing,China,30.0572,107.874,27,2020-01-24,0,0,China
305,Fujian,China,26.0789,117.9874,10,2020-01-24,0,0,China
306,Gansu,China,36.0611,103.8343,2,2020-01-24,0,0,China
307,Guangdong,China,23.3417,113.4244,53,2020-01-24,2,0,China
308,Guangxi,China,23.8298,108.7881,23,2020-01-24,0,0,China
309,Guizhou,China,26.8154,106.8748,3,2020-01-24,0,0,China
310,Hainan,China,19.1959,109.7453,8,2020-01-24,0,0,China
311,Hebei,China,38.0428,114.5149,2,2020-01-24,0,1,China
312,Heilongjiang,China,47.861999999999995,127.7615,4,2020-01-24,0,1,China
313,Henan,China,33.882020000000004,113.61399999999999,9,2020-01-24,0,0,China
314,Hubei,China,30.9756,112.2707,549,2020-01-24,31,24,China
315,Hunan,China,27.6104,111.7088,24,2020-01-24,0,0,China
316,Inner Mongolia,China,44.0935,113.9448,1,2020-01-24,0,0,China
317,Jiangsu,China,32.9711,119.455,9,2020-01-24,0,0,China
318,Jiangxi,China,27.614,115.7221,18,2020-01-24,0,0,China
319,Jilin,China,43.6661,126.1923,3,2020-01-24,0,0,China
320,Liaoning,China,41.2956,122.6085,4,2020-01-24,0,0,China
321,Ningxia,China,37.2692,106.1655,2,2020-01-24,0,0,China
322,Qinghai,China,35.7452,95.9956,0,2020-01-24,0,0,China
323,Shaanxi,China,35.1917,108.8701,5,2020-01-24,0,0,China
324,Shandong,China,36.3427,118.1498,15,2020-01-24,0,0,China
325,Shanghai,China,31.201999999999998,121.4491,20,2020-01-24,1,0,China
326,Shanxi,China,37.5777,112.2922,1,2020-01-24,0,0,China
327,Sichuan,China,30.6171,102.7103,15,2020-01-24,0,0,China
328,Tianjin,China,39.3054,117.323,8,2020-01-24,0,0,China
329,Tibet,China,31.6927,88.0924,0,2020-01-24,0,0,China
330,Xinjiang,China,41.1129,85.2401,2,2020-01-24,0,0,China
331,Yunnan,China,24.974,101.48700000000001,5,2020-01-24,0,0,China
332,Zhejiang,China,29.1832,120.0934,43,2020-01-24,1,0,China
333,Thailand,Thailand,15.0,101.0,5,2020-01-24,0,0,Thailand
334,Japan,Japan,36.0,138.0,2,2020-01-24,0,0,Japan
335,South Korea,South Korea,36.0,128.0,2,2020-01-24,0,0,South Korea
336,Taiwan,Taiwan,23.7,121.0,3,2020-01-24,0,0,Taiwan
337,"King County, WA",United States of America,47.6062,-122.3321,1,2020-01-24,0,0,United States of America
338,"Cook County, IL",United States of America,41.7377,-87.6976,1,2020-01-24,0,0,United States of America
339,"Tempe, AZ",United States of America,33.4255,-111.94,0,2020-01-24,0,0,United States of America
340,Macau,Macau,22.1667,113.55,2,2020-01-24,0,0,Macau
341,Hong Kong,Hong Kong,22.3,114.2,2,2020-01-24,0,0,Hong Kong
342,Singapore,Singapore,1.2833,103.8333,3,2020-01-24,0,0,Singapore
343,Vietnam,Vietnam,16.0,108.0,2,2020-01-24,0,0,Vietnam
344,France,France,47.0,2.0,2,2020-01-24,0,0,France
345,Nepal,Nepal,28.1667,84.25,0,2020-01-24,0,0,Nepal
346,Malaysia,Malaysia,2.5,112.5,0,2020-01-24,0,0,Malaysia
347,"Toronto, ON",Canada,43.6532,-79.3832,0,2020-01-24,0,0,Canada
348,British Columbia,Canada,49.2827,-123.1207,0,2020-01-24,0,0,Canada
349,"Orange, CA",United States of America,33.7879,-117.8531,0,2020-01-24,0,0,United States of America
350,"Los Angeles, CA",United States of America,34.0522,-118.2437,0,2020-01-24,0,0,United States of America
351,New South Wales,Australia,-33.8688,151.2093,0,2020-01-24,0,0,Australia
352,Victoria,Australia,-37.8136,144.9631,0,2020-01-24,0,0,Australia
353,Queensland,Australia,-28.0167,153.4,0,2020-01-24,0,0,Australia
354,Cambodia,Cambodia,11.55,104.9167,0,2020-01-24,0,0,Cambodia
355,Sri Lanka,Sri Lanka,7.0,81.0,0,2020-01-24,0,0,Sri Lanka
356,Germany,Germany,51.0,9.0,0,2020-01-24,0,0,Germany
357,Finland,Finland,64.0,26.0,0,2020-01-24,0,0,Finland
358,United Arab Emirates,United Arab Emirates,24.0,54.0,0,2020-01-24,0,0,United Arab Emirates
359,Philippines,Philippines,13.0,122.0,0,2020-01-24,0,0,Philippines
360,India,India,21.0,78.0,0,2020-01-24,0,0,India
361,"London, ON",Canada,42.9849,-81.2453,0,2020-01-24,0,0,Canada
362,Italy,Italy,43.0,12.0,0,2020-01-24,0,0,Italy
363,UK,UK,55.0,-3.0,0,2020-01-24,0,0,UK
364,Russia,Russia,60.0,90.0,0,2020-01-24,0,0,Russia
365,Sweden,Sweden,63.0,16.0,0,2020-01-24,0,0,Sweden
366,"Santa Clara, CA",United States of America,37.3541,-121.9552,0,2020-01-24,0,0,United States of America
367,Spain,Spain,40.0,-4.0,0,2020-01-24,0,0,Spain
368,South Australia,Australia,-34.9285,138.6007,0,2020-01-24,0,0,Australia
369,"Boston, MA",United States of America,42.3601,-71.0589,0,2020-01-24,0,0,United States of America
370,"San Benito, CA",United States of America,36.5761,-120.9876,0,2020-01-24,0,0,United States of America
371,Belgium,Belgium,50.8333,4.0,0,2020-01-24,0,0,Belgium
372,"Madison, WI",United States of America,43.0731,-89.4012,0,2020-01-24,0,0,United States of America
373,Diamond Princess cruise ship,Others,35.4437,139.638,0,2020-01-24,0,0,Others
374,"San Diego County, CA",United States of America,32.7157,-117.1611,0,2020-01-24,0,0,United States of America
375,"San Antonio, TX",United States of America,29.4241,-98.4936,0,2020-01-24,0,0,United States of America
376,Egypt,Egypt,26.0,30.0,0,2020-01-24,0,0,Egypt
377,Iran,Iran,32.0,53.0,0,2020-01-24,0,0,Iran
378,"Omaha, NE (From Diamond Princess)",United States of America,41.2545,-95.9758,0,2020-01-24,0,0,United States of America
379,"Travis, CA (From Diamond Princess)",United States of America,38.2721,-121.9399,0,2020-01-24,0,0,United States of America
380,From Diamond Princess,Australia,35.4437,139.638,0,2020-01-24,0,0,Australia
381,"Lackland, TX (From Diamond Princess)",United States of America,29.3829,-98.6134,0,2020-01-24,0,0,United States of America
382,Lebanon,Lebanon,33.8547,35.8623,0,2020-01-24,0,0,Lebanon
383,"Humboldt County, CA",United States of America,40.745,-123.8695,0,2020-01-24,0,0,United States of America
384,"Sacramento County, CA",United States of America,38.4747,-121.3542,0,2020-01-24,0,0,United States of America
385,Iraq,Iraq,33.0,44.0,0,2020-01-24,0,0,Iraq
386,Unassigned Location (From Diamond Princess),United States of America,35.4437,139.638,0,2020-01-24,0,0,United States of America
387,Oman,Oman,21.0,57.0,0,2020-01-24,0,0,Oman
388,Afghanistan,Afghanistan,33.0,65.0,0,2020-01-24,0,0,Afghanistan
389,Bahrain,Bahrain,26.0275,50.55,0,2020-01-24,0,0,Bahrain
390,Kuwait,Kuwait,29.5,47.75,0,2020-01-24,0,0,Kuwait
391,Algeria,Algeria,28.0339,1.6596,0,2020-01-24,0,0,Algeria
392,Croatia,Croatia,45.1,15.2,0,2020-01-24,0,0,Croatia
393,Switzerland,Switzerland,46.8182,8.2275,0,2020-01-24,0,0,Switzerland
394,Austria,Austria,47.5162,14.5501,0,2020-01-24,0,0,Austria
395,Israel,Israel,31.0,35.0,0,2020-01-24,0,0,Israel
396,Pakistan,Pakistan,30.3753,69.3451,0,2020-01-24,0,0,Pakistan
397,Brazil,Brazil,-14.235,-51.9253,0,2020-01-24,0,0,Brazil
398,Georgia,Georgia,42.3154,43.3569,0,2020-01-24,0,0,Georgia
399,Greece,Greece,39.0742,21.8243,0,2020-01-24,0,0,Greece
400,North Macedonia,North Macedonia,41.6086,21.7453,0,2020-01-24,0,0,North Macedonia
401,Norway,Norway,60.472,8.4689,0,2020-01-24,0,0,Norway
402,Romania,Romania,45.9432,24.9668,0,2020-01-24,0,0,Romania
403,Denmark,Denmark,56.2639,9.5018,0,2020-01-24,0,0,Denmark
404,Estonia,Estonia,58.5953,25.0136,0,2020-01-24,0,0,Estonia
405,Netherlands,Netherlands,52.1326,5.2913,0,2020-01-24,0,0,Netherlands
406,San Marino,San Marino,43.9424,12.4578,0,2020-01-24,0,0,San Marino
407,Belarus,Belarus,53.7098,27.9534,0,2020-01-24,0,0,Belarus
408," Montreal, QC",Canada,45.5017,-73.5673,0,2020-01-24,0,0,Canada
409,Iceland,Iceland,64.9631,-19.0208,0,2020-01-24,0,0,Iceland
410,Lithuania,Lithuania,55.1694,23.8813,0,2020-01-24,0,0,Lithuania
411,Mexico,Mexico,23.6345,-102.5528,0,2020-01-24,0,0,Mexico
412,New Zealand,New Zealand,-40.9006,174.886,0,2020-01-24,0,0,New Zealand
413,Nigeria,Nigeria,9.082,8.6753,0,2020-01-24,0,0,Nigeria
414,Western Australia,Australia,-31.9505,115.8605,0,2020-01-24,0,0,Australia
415,Ireland,Ireland,53.1424,-7.6921,0,2020-01-24,0,0,Ireland
416,Luxembourg,Luxembourg,49.8153,6.1296,0,2020-01-24,0,0,Luxembourg
417,Monaco,Monaco,43.7333,7.4167,0,2020-01-24,0,0,Monaco
418,Qatar,Qatar,25.3548,51.1839,0,2020-01-24,0,0,Qatar
419,"Snohomish County, WA",United States of America,48.033,-121.8339,0,2020-01-24,0,0,United States of America
420,Ecuador,Ecuador,-1.8312,-78.1834,0,2020-01-24,0,0,Ecuador
421,Azerbaijan,Azerbaijan,40.1431,47.5769,0,2020-01-24,0,0,Azerbaijan
422,Czech Republic,Czech Republic,49.8175,15.472999999999999,0,2020-01-24,0,0,Czech Republic
423,Armenia,Armenia,40.0691,45.0382,0,2020-01-24,0,0,Armenia
424,Dominican Republic,Dominican Republic,18.7357,-70.1627,0,2020-01-24,0,0,Dominican Republic
425,"Providence, RI",United States of America,41.824,-71.4128,0,2020-01-24,0,0,United States of America
426,Indonesia,Indonesia,-0.7893,113.9213,0,2020-01-24,0,0,Indonesia
427,Portugal,Portugal,39.3999,-8.2245,0,2020-01-24,0,0,Portugal
428,Andorra,Andorra,42.5063,1.5218,0,2020-01-24,0,0,Andorra
429,Tasmania,Australia,-41.4545,145.9707,0,2020-01-24,0,0,Australia
430,Latvia,Latvia,56.8796,24.6032,0,2020-01-24,0,0,Latvia
431,Morocco,Morocco,31.7917,-7.0926,0,2020-01-24,0,0,Morocco
432,Saudi Arabia,Saudi Arabia,24.0,45.0,0,2020-01-24,0,0,Saudi Arabia
433,Senegal,Senegal,14.4974,-14.4524,0,2020-01-24,0,0,Senegal
434,"Grafton County, NH",United States of America,43.9088,-71.82600000000001,0,2020-01-24,0,0,United States of America
435,"Hillsborough, FL",United States of America,27.9904,-82.3018,0,2020-01-24,0,0,United States of America
436,"New York City, NY",United States of America,40.7128,-74.006,0,2020-01-24,0,0,United States of America
437,"Placer County, CA",United States of America,39.0916,-120.8039,0,2020-01-24,0,0,United States of America
438,"San Mateo, CA",United States of America,37.563,-122.3255,0,2020-01-24,0,0,United States of America
439,"Sarasota, FL",United States of America,27.3364,-82.5307,0,2020-01-24,0,0,United States of America
440,"Sonoma County, CA",United States of America,38.578,-122.9888,0,2020-01-24,0,0,United States of America
441,"Umatilla, OR",United States of America,45.775,-118.7606,0,2020-01-24,0,0,United States of America
442,"Fulton County, GA",United States of America,33.8034,-84.3963,0,2020-01-24,0,0,United States of America
443,"Washington County, OR",United States of America,45.547,-123.1386,0,2020-01-24,0,0,United States of America
444,Argentina,Argentina,-38.4161,-63.6167,0,2020-01-24,0,0,Argentina
445,Chile,Chile,-35.6751,-71.543,0,2020-01-24,0,0,Chile
446,Jordan,Jordan,31.24,36.51,0,2020-01-24,0,0,Jordan
447," Norfolk County, MA",United States of America,42.1767,-71.1449,0,2020-01-24,0,0,United States of America
448,"Berkeley, CA",United States of America,37.8715,-122.273,0,2020-01-24,0,0,United States of America
449,"Maricopa County, AZ",United States of America,33.2918,-112.4291,0,2020-01-24,0,0,United States of America
450,"Wake County, NC",United States of America,35.8032,-78.5661,0,2020-01-24,0,0,United States of America
451,"Westchester County, NY",United States of America,41.122,-73.7949,0,2020-01-24,0,0,United States of America
452,Ukraine,Ukraine,48.3794,31.1656,0,2020-01-24,0,0,Ukraine
453,Anhui,China,31.8257,117.2264,39,2020-01-25,0,0,China
454,Beijing,China,40.1824,116.4142,41,2020-01-25,2,0,China
455,Chongqing,China,30.0572,107.874,57,2020-01-25,0,0,China
456,Fujian,China,26.0789,117.9874,18,2020-01-25,0,0,China
457,Gansu,China,36.0611,103.8343,4,2020-01-25,0,0,China
458,Guangdong,China,23.3417,113.4244,78,2020-01-25,2,0,China
459,Guangxi,China,23.8298,108.7881,23,2020-01-25,0,0,China
460,Guizhou,China,26.8154,106.8748,4,2020-01-25,0,0,China
461,Hainan,China,19.1959,109.7453,19,2020-01-25,0,0,China
462,Hebei,China,38.0428,114.5149,8,2020-01-25,0,1,China
463,Heilongjiang,China,47.861999999999995,127.7615,9,2020-01-25,0,1,China
464,Henan,China,33.882020000000004,113.61399999999999,32,2020-01-25,0,0,China
465,Hubei,China,30.9756,112.2707,761,2020-01-25,32,40,China
466,Hunan,China,27.6104,111.7088,43,2020-01-25,0,0,China
467,Inner Mongolia,China,44.0935,113.9448,7,2020-01-25,0,0,China
468,Jiangsu,China,32.9711,119.455,18,2020-01-25,1,0,China
469,Jiangxi,China,27.614,115.7221,18,2020-01-25,0,0,China
470,Jilin,China,43.6661,126.1923,4,2020-01-25,0,0,China
471,Liaoning,China,41.2956,122.6085,17,2020-01-25,0,0,China
472,Ningxia,China,37.2692,106.1655,3,2020-01-25,0,0,China
473,Qinghai,China,35.7452,95.9956,1,2020-01-25,0,0,China
474,Shaanxi,China,35.1917,108.8701,15,2020-01-25,0,0,China
475,Shandong,China,36.3427,118.1498,27,2020-01-25,0,0,China
476,Shanghai,China,31.201999999999998,121.4491,33,2020-01-25,1,0,China
477,Shanxi,China,37.5777,112.2922,6,2020-01-25,0,0,China
478,Sichuan,China,30.6171,102.7103,28,2020-01-25,0,0,China
479,Tianjin,China,39.3054,117.323,10,2020-01-25,0,0,China
480,Tibet,China,31.6927,88.0924,0,2020-01-25,0,0,China
481,Xinjiang,China,41.1129,85.2401,3,2020-01-25,0,0,China
482,Yunnan,China,24.974,101.48700000000001,11,2020-01-25,0,0,China
483,Zhejiang,China,29.1832,120.0934,62,2020-01-25,1,0,China
484,Thailand,Thailand,15.0,101.0,7,2020-01-25,0,0,Thailand
485,Japan,Japan,36.0,138.0,2,2020-01-25,0,0,Japan
486,South Korea,South Korea,36.0,128.0,2,2020-01-25,0,0,South Korea
487,Taiwan,Taiwan,23.7,121.0,3,2020-01-25,0,0,Taiwan
488,"King County, WA",United States of America,47.6062,-122.3321,1,2020-01-25,0,0,United States of America
489,"Cook County, IL",United States of America,41.7377,-87.6976,1,2020-01-25,0,0,United States of America
490,"Tempe, AZ",United States of America,33.4255,-111.94,0,2020-01-25,0,0,United States of America
491,Macau,Macau,22.1667,113.55,2,2020-01-25,0,0,Macau
492,Hong Kong,Hong Kong,22.3,114.2,5,2020-01-25,0,0,Hong Kong
493,Singapore,Singapore,1.2833,103.8333,3,2020-01-25,0,0,Singapore
494,Vietnam,Vietnam,16.0,108.0,2,2020-01-25,0,0,Vietnam
495,France,France,47.0,2.0,3,2020-01-25,0,0,France
496,Nepal,Nepal,28.1667,84.25,1,2020-01-25,0,0,Nepal
497,Malaysia,Malaysia,2.5,112.5,3,2020-01-25,0,0,Malaysia
498,"Toronto, ON",Canada,43.6532,-79.3832,0,2020-01-25,0,0,Canada
499,British Columbia,Canada,49.2827,-123.1207,0,2020-01-25,0,0,Canada
500,"Orange, CA",United States of America,33.7879,-117.8531,0,2020-01-25,0,0,United States of America
501,"Los Angeles, CA",United States of America,34.0522,-118.2437,0,2020-01-25,0,0,United States of America
502,New South Wales,Australia,-33.8688,151.2093,0,2020-01-25,0,0,Australia
503,Victoria,Australia,-37.8136,144.9631,0,2020-01-25,0,0,Australia
504,Queensland,Australia,-28.0167,153.4,0,2020-01-25,0,0,Australia
505,Cambodia,Cambodia,11.55,104.9167,0,2020-01-25,0,0,Cambodia
506,Sri Lanka,Sri Lanka,7.0,81.0,0,2020-01-25,0,0,Sri Lanka
507,Germany,Germany,51.0,9.0,0,2020-01-25,0,0,Germany
508,Finland,Finland,64.0,26.0,0,2020-01-25,0,0,Finland
509,United Arab Emirates,United Arab Emirates,24.0,54.0,0,2020-01-25,0,0,United Arab Emirates
510,Philippines,Philippines,13.0,122.0,0,2020-01-25,0,0,Philippines
511,India,India,21.0,78.0,0,2020-01-25,0,0,India
512,"London, ON",Canada,42.9849,-81.2453,0,2020-01-25,0,0,Canada
513,Italy,Italy,43.0,12.0,0,2020-01-25,0,0,Italy
514,UK,UK,55.0,-3.0,0,2020-01-25,0,0,UK
515,Russia,Russia,60.0,90.0,0,2020-01-25,0,0,Russia
516,Sweden,Sweden,63.0,16.0,0,2020-01-25,0,0,Sweden
517,"Santa Clara, CA",United States of America,37.3541,-121.9552,0,2020-01-25,0,0,United States of America
518,Spain,Spain,40.0,-4.0,0,2020-01-25,0,0,Spain
519,South Australia,Australia,-34.9285,138.6007,0,2020-01-25,0,0,Australia
520,"Boston, MA",United States of America,42.3601,-71.0589,0,2020-01-25,0,0,United States of America
521,"San Benito, CA",United States of America,36.5761,-120.9876,0,2020-01-25,0,0,United States of America
522,Belgium,Belgium,50.8333,4.0,0,2020-01-25,0,0,Belgium
523,"Madison, WI",United States of America,43.0731,-89.4012,0,2020-01-25,0,0,United States of America
524,Diamond Princess cruise ship,Others,35.4437,139.638,0,2020-01-25,0,0,Others
525,"San Diego County, CA",United States of America,32.7157,-117.1611,0,2020-01-25,0,0,United States of America
526,"San Antonio, TX",United States of America,29.4241,-98.4936,0,2020-01-25,0,0,United States of America
527,Egypt,Egypt,26.0,30.0,0,2020-01-25,0,0,Egypt
528,Iran,Iran,32.0,53.0,0,2020-01-25,0,0,Iran
529,"Omaha, NE (From Diamond Princess)",United States of America,41.2545,-95.9758,0,2020-01-25,0,0,United States of America
530,"Travis, CA (From Diamond Princess)",United States of America,38.2721,-121.9399,0,2020-01-25,0,0,United States of America
531,From Diamond Princess,Australia,35.4437,139.638,0,2020-01-25,0,0,Australia
532,"Lackland, TX (From Diamond Princess)",United States of America,29.3829,-98.6134,0,2020-01-25,0,0,United States of America
533,Lebanon,Lebanon,33.8547,35.8623,0,2020-01-25,0,0,Lebanon
534,"Humboldt County, CA",United States of America,40.745,-123.8695,0,2020-01-25,0,0,United States of America
535,"Sacramento County, CA",United States of America,38.4747,-121.3542,0,2020-01-25,0,0,United States of America
536,Iraq,Iraq,33.0,44.0,0,2020-01-25,0,0,Iraq
537,Unassigned Location (From Diamond Princess),United States of America,35.4437,139.638,0,2020-01-25,0,0,United States of America
538,Oman,Oman,21.0,57.0,0,2020-01-25,0,0,Oman
539,Afghanistan,Afghanistan,33.0,65.0,0,2020-01-25,0,0,Afghanistan
540,Bahrain,Bahrain,26.0275,50.55,0,2020-01-25,0,0,Bahrain
541,Kuwait,Kuwait,29.5,47.75,0,2020-01-25,0,0,Kuwait
542,Algeria,Algeria,28.0339,1.6596,0,2020-01-25,0,0,Algeria
543,Croatia,Croatia,45.1,15.2,0,2020-01-25,0,0,Croatia
544,Switzerland,Switzerland,46.8182,8.2275,0,2020-01-25,0,0,Switzerland
545,Austria,Austria,47.5162,14.5501,0,2020-01-25,0,0,Austria
546,Israel,Israel,31.0,35.0,0,2020-01-25,0,0,Israel
547,Pakistan,Pakistan,30.3753,69.3451,0,2020-01-25,0,0,Pakistan
548,Brazil,Brazil,-14.235,-51.9253,0,2020-01-25,0,0,Brazil
549,Georgia,Georgia,42.3154,43.3569,0,2020-01-25,0,0,Georgia
550,Greece,Greece,39.0742,21.8243,0,2020-01-25,0,0,Greece
551,North Macedonia,North Macedonia,41.6086,21.7453,0,2020-01-25,0,0,North Macedonia
552,Norway,Norway,60.472,8.4689,0,2020-01-25,0,0,Norway
553,Romania,Romania,45.9432,24.9668,0,2020-01-25,0,0,Romania
554,Denmark,Denmark,56.2639,9.5018,0,2020-01-25,0,0,Denmark
555,Estonia,Estonia,58.5953,25.0136,0,2020-01-25,0,0,Estonia
556,Netherlands,Netherlands,52.1326,5.2913,0,2020-01-25,0,0,Netherlands
557,San Marino,San Marino,43.9424,12.4578,0,2020-01-25,0,0,San Marino
558,Belarus,Belarus,53.7098,27.9534,0,2020-01-25,0,0,Belarus
559," Montreal, QC",Canada,45.5017,-73.5673,0,2020-01-25,0,0,Canada
560,Iceland,Iceland,64.9631,-19.0208,0,2020-01-25,0,0,Iceland
561,Lithuania,Lithuania,55.1694,23.8813,0,2020-01-25,0,0,Lithuania
562,Mexico,Mexico,23.6345,-102.5528,0,2020-01-25,0,0,Mexico
563,New Zealand,New Zealand,-40.9006,174.886,0,2020-01-25,0,0,New Zealand
564,Nigeria,Nigeria,9.082,8.6753,0,2020-01-25,0,0,Nigeria
565,Western Australia,Australia,-31.9505,115.8605,0,2020-01-25,0,0,Australia
566,Ireland,Ireland,53.1424,-7.6921,0,2020-01-25,0,0,Ireland
567,Luxembourg,Luxembourg,49.8153,6.1296,0,2020-01-25,0,0,Luxembourg
568,Monaco,Monaco,43.7333,7.4167,0,2020-01-25,0,0,Monaco
569,Qatar,Qatar,25.3548,51.1839,0,2020-01-25,0,0,Qatar
570,"Snohomish County, WA",United States of America,48.033,-121.8339,0,2020-01-25,0,0,United States of America
571,Ecuador,Ecuador,-1.8312,-78.1834,0,2020-01-25,0,0,Ecuador
572,Azerbaijan,Azerbaijan,40.1431,47.5769,0,2020-01-25,0,0,Azerbaijan
573,Czech Republic,Czech Republic,49.8175,15.472999999999999,0,2020-01-25,0,0,Czech Republic
574,Armenia,Armenia,40.0691,45.0382,0,2020-01-25,0,0,Armenia
575,Dominican Republic,Dominican Republic,18.7357,-70.1627,0,2020-01-25,0,0,Dominican Republic
576,"Providence, RI",United States of America,41.824,-71.4128,0,2020-01-25,0,0,United States of America
577,Indonesia,Indonesia,-0.7893,113.9213,0,2020-01-25,0,0,Indonesia
578,Portugal,Portugal,39.3999,-8.2245,0,2020-01-25,0,0,Portugal
579,Andorra,Andorra,42.5063,1.5218,0,2020-01-25,0,0,Andorra
580,Tasmania,Australia,-41.4545,145.9707,0,2020-01-25,0,0,Australia
581,Latvia,Latvia,56.8796,24.6032,0,2020-01-25,0,0,Latvia
582,Morocco,Morocco,31.7917,-7.0926,0,2020-01-25,0,0,Morocco
583,Saudi Arabia,Saudi Arabia,24.0,45.0,0,2020-01-25,0,0,Saudi Arabia
584,Senegal,Senegal,14.4974,-14.4524,0,2020-01-25,0,0,Senegal
585,"Grafton County, NH",United States of America,43.9088,-71.82600000000001,0,2020-01-25,0,0,United States of America
586,"Hillsborough, FL",United States of America,27.9904,-82.3018,0,2020-01-25,0,0,United States of America
587,"New York City, NY",United States of America,40.7128,-74.006,0,2020-01-25,0,0,United States of America
588,"Placer County, CA",United States of America,39.0916,-120.8039,0,2020-01-25,0,0,United States of America
589,"San Mateo, CA",United States of America,37.563,-122.3255,0,2020-01-25,0,0,United States of America
590,"Sarasota, FL",United States of America,27.3364,-82.5307,0,2020-01-25,0,0,United States of America
591,"Sonoma County, CA",United States of America,38.578,-122.9888,0,2020-01-25,0,0,United States of America
592,"Umatilla, OR",United States of America,45.775,-118.7606,0,2020-01-25,0,0,United States of America
593,"Fulton County, GA",United States of America,33.8034,-84.3963,0,2020-01-25,0,0,United States of America
594,"Washington County, OR",United States of America,45.547,-123.1386,0,2020-01-25,0,0,United States of America
595,Argentina,Argentina,-38.4161,-63.6167,0,2020-01-25,0,0,Argentina
596,Chile,Chile,-35.6751,-71.543,0,2020-01-25,0,0,Chile
597,Jordan,Jordan,31.24,36.51,0,2020-01-25,0,0,Jordan
598," Norfolk County, MA",United States of America,42.1767,-71.1449,0,2020-01-25,0,0,United States of America
599,"Berkeley, CA",United States of America,37.8715,-122.273,0,2020-01-25,0,0,United States of America
600,"Maricopa County, AZ",United States of America,33.2918,-112.4291,0,2020-01-25,0,0,United States of America
601,"Wake County, NC",United States of America,35.8032,-78.5661,0,2020-01-25,0,0,United States of America
602,"Westchester County, NY",United States of America,41.122,-73.7949,0,2020-01-25,0,0,United States of America
603,Ukraine,Ukraine,48.3794,31.1656,0,2020-01-25,0,0,Ukraine
604,Anhui,China,31.8257,117.2264,60,2020-01-26,0,0,China
605,Beijing,China,40.1824,116.4142,68,2020-01-26,2,0,China
606,Chongqing,China,30.0572,107.874,75,2020-01-26,0,0,China
607,Fujian,China,26.0789,117.9874,35,2020-01-26,0,0,China
608,Gansu,China,36.0611,103.8343,7,2020-01-26,0,0,China
609,Guangdong,China,23.3417,113.4244,111,2020-01-26,2,0,China
610,Guangxi,China,23.8298,108.7881,36,2020-01-26,0,0,China
611,Guizhou,China,26.8154,106.8748,5,2020-01-26,0,0,China
612,Hainan,China,19.1959,109.7453,22,2020-01-26,0,0,China
613,Hebei,China,38.0428,114.5149,13,2020-01-26,0,1,China
614,Heilongjiang,China,47.861999999999995,127.7615,15,2020-01-26,0,1,China
615,Henan,China,33.882020000000004,113.61399999999999,83,2020-01-26,0,1,China
616,Hubei,China,30.9756,112.2707,1058,2020-01-26,42,52,China
617,Hunan,China,27.6104,111.7088,69,2020-01-26,0,0,China
618,Inner Mongolia,China,44.0935,113.9448,7,2020-01-26,0,0,China
619,Jiangsu,China,32.9711,119.455,33,2020-01-26,1,0,China
620,Jiangxi,China,27.614,115.7221,36,2020-01-26,0,0,China
621,Jilin,China,43.6661,126.1923,4,2020-01-26,0,0,China
622,Liaoning,China,41.2956,122.6085,21,2020-01-26,0,0,China
623,Ningxia,China,37.2692,106.1655,4,2020-01-26,0,0,China
624,Qinghai,China,35.7452,95.9956,1,2020-01-26,0,0,China
625,Shaanxi,China,35.1917,108.8701,22,2020-01-26,0,0,China
626,Shandong,China,36.3427,118.1498,46,2020-01-26,0,0,China
627,Shanghai,China,31.201999999999998,121.4491,40,2020-01-26,1,1,China
628,Shanxi,China,37.5777,112.2922,9,2020-01-26,0,0,China
629,Sichuan,China,30.6171,102.7103,44,2020-01-26,0,0,China
630,Tianjin,China,39.3054,117.323,14,2020-01-26,0,0,China
631,Tibet,China,31.6927,88.0924,0,2020-01-26,0,0,China
632,Xinjiang,China,41.1129,85.2401,4,2020-01-26,0,0,China
633,Yunnan,China,24.974,101.48700000000001,16,2020-01-26,0,0,China
634,Zhejiang,China,29.1832,120.0934,104,2020-01-26,1,0,China
635,Thailand,Thailand,15.0,101.0,8,2020-01-26,2,0,Thailand
636,Japan,Japan,36.0,138.0,4,2020-01-26,1,0,Japan
637,South Korea,South Korea,36.0,128.0,3,2020-01-26,0,0,South Korea
638,Taiwan,Taiwan,23.7,121.0,4,2020-01-26,0,0,Taiwan
639,"King County, WA",United States of America,47.6062,-122.3321,1,2020-01-26,0,0,United States of America
640,"Cook County, IL",United States of America,41.7377,-87.6976,1,2020-01-26,0,0,United States of America
641,"Tempe, AZ",United States of America,33.4255,-111.94,1,2020-01-26,0,0,United States of America
642,Macau,Macau,22.1667,113.55,5,2020-01-26,0,0,Macau
643,Hong Kong,Hong Kong,22.3,114.2,8,2020-01-26,0,0,Hong Kong
644,Singapore,Singapore,1.2833,103.8333,4,2020-01-26,0,0,Singapore
645,Vietnam,Vietnam,16.0,108.0,2,2020-01-26,0,0,Vietnam
646,France,France,47.0,2.0,3,2020-01-26,0,0,France
647,Nepal,Nepal,28.1667,84.25,1,2020-01-26,0,0,Nepal
648,Malaysia,Malaysia,2.5,112.5,4,2020-01-26,0,0,Malaysia
649,"Toronto, ON",Canada,43.6532,-79.3832,1,2020-01-26,0,0,Canada
650,British Columbia,Canada,49.2827,-123.1207,0,2020-01-26,0,0,Canada
651,"Orange, CA",United States of America,33.7879,-117.8531,1,2020-01-26,0,0,United States of America
652,"Los Angeles, CA",United States of America,34.0522,-118.2437,1,2020-01-26,0,0,United States of America
653,New South Wales,Australia,-33.8688,151.2093,3,2020-01-26,0,0,Australia
654,Victoria,Australia,-37.8136,144.9631,1,2020-01-26,0,0,Australia
655,Queensland,Australia,-28.0167,153.4,0,2020-01-26,0,0,Australia
656,Cambodia,Cambodia,11.55,104.9167,0,2020-01-26,0,0,Cambodia
657,Sri Lanka,Sri Lanka,7.0,81.0,0,2020-01-26,0,0,Sri Lanka
658,Germany,Germany,51.0,9.0,0,2020-01-26,0,0,Germany
659,Finland,Finland,64.0,26.0,0,2020-01-26,0,0,Finland
660,United Arab Emirates,United Arab Emirates,24.0,54.0,0,2020-01-26,0,0,United Arab Emirates
661,Philippines,Philippines,13.0,122.0,0,2020-01-26,0,0,Philippines
662,India,India,21.0,78.0,0,2020-01-26,0,0,India
663,"London, ON",Canada,42.9849,-81.2453,0,2020-01-26,0,0,Canada
664,Italy,Italy,43.0,12.0,0,2020-01-26,0,0,Italy
665,UK,UK,55.0,-3.0,0,2020-01-26,0,0,UK
666,Russia,Russia,60.0,90.0,0,2020-01-26,0,0,Russia
667,Sweden,Sweden,63.0,16.0,0,2020-01-26,0,0,Sweden
668,"Santa Clara, CA",United States of America,37.3541,-121.9552,0,2020-01-26,0,0,United States of America
669,Spain,Spain,40.0,-4.0,0,2020-01-26,0,0,Spain
670,South Australia,Australia,-34.9285,138.6007,0,2020-01-26,0,0,Australia
671,"Boston, MA",United States of America,42.3601,-71.0589,0,2020-01-26,0,0,United States of America
672,"San Benito, CA",United States of America,36.5761,-120.9876,0,2020-01-26,0,0,United States of America
673,Belgium,Belgium,50.8333,4.0,0,2020-01-26,0,0,Belgium
674,"Madison, WI",United States of America,43.0731,-89.4012,0,2020-01-26,0,0,United States of America
675,Diamond Princess cruise ship,Others,35.4437,139.638,0,2020-01-26,0,0,Others
676,"San Diego County, CA",United States of America,32.7157,-117.1611,0,2020-01-26,0,0,United States of America
677,"San Antonio, TX",United States of America,29.4241,-98.4936,0,2020-01-26,0,0,United States of America
678,Egypt,Egypt,26.0,30.0,0,2020-01-26,0,0,Egypt
679,Iran,Iran,32.0,53.0,0,2020-01-26,0,0,Iran
680,"Omaha, NE (From Diamond Princess)",United States of America,41.2545,-95.9758,0,2020-01-26,0,0,United States of America
681,"Travis, CA (From Diamond Princess)",United States of America,38.2721,-121.9399,0,2020-01-26,0,0,United States of America
682,From Diamond Princess,Australia,35.4437,139.638,0,2020-01-26,0,0,Australia
683,"Lackland, TX (From Diamond Princess)",United States of America,29.3829,-98.6134,0,2020-01-26,0,0,United States of America
684,Lebanon,Lebanon,33.8547,35.8623,0,2020-01-26,0,0,Lebanon
685,"Humboldt County, CA",United States of America,40.745,-123.8695,0,2020-01-26,0,0,United States of America
686,"Sacramento County, CA",United States of America,38.4747,-121.3542,0,2020-01-26,0,0,United States of America
687,Iraq,Iraq,33.0,44.0,0,2020-01-26,0,0,Iraq
688,Unassigned Location (From Diamond Princess),United States of America,35.4437,139.638,0,2020-01-26,0,0,United States of America
689,Oman,Oman,21.0,57.0,0,2020-01-26,0,0,Oman
690,Afghanistan,Afghanistan,33.0,65.0,0,2020-01-26,0,0,Afghanistan
691,Bahrain,Bahrain,26.0275,50.55,0,2020-01-26,0,0,Bahrain
692,Kuwait,Kuwait,29.5,47.75,0,2020-01-26,0,0,Kuwait
693,Algeria,Algeria,28.0339,1.6596,0,2020-01-26,0,0,Algeria
694,Croatia,Croatia,45.1,15.2,0,2020-01-26,0,0,Croatia
695,Switzerland,Switzerland,46.8182,8.2275,0,2020-01-26,0,0,Switzerland
696,Austria,Austria,47.5162,14.5501,0,2020-01-26,0,0,Austria
697,Israel,Israel,31.0,35.0,0,2020-01-26,0,0,Israel
698,Pakistan,Pakistan,30.3753,69.3451,0,2020-01-26,0,0,Pakistan
699,Brazil,Brazil,-14.235,-51.9253,0,2020-01-26,0,0,Brazil
700,Georgia,Georgia,42.3154,43.3569,0,2020-01-26,0,0,Georgia
701,Greece,Greece,39.0742,21.8243,0,2020-01-26,0,0,Greece
702,North Macedonia,North Macedonia,41.6086,21.7453,0,2020-01-26,0,0,North Macedonia
703,Norway,Norway,60.472,8.4689,0,2020-01-26,0,0,Norway
704,Romania,Romania,45.9432,24.9668,0,2020-01-26,0,0,Romania
705,Denmark,Denmark,56.2639,9.5018,0,2020-01-26,0,0,Denmark
706,Estonia,Estonia,58.5953,25.0136,0,2020-01-26,0,0,Estonia
707,Netherlands,Netherlands,52.1326,5.2913,0,2020-01-26,0,0,Netherlands
708,San Marino,San Marino,43.9424,12.4578,0,2020-01-26,0,0,San Marino
709,Belarus,Belarus,53.7098,27.9534,0,2020-01-26,0,0,Belarus
710," Montreal, QC",Canada,45.5017,-73.5673,0,2020-01-26,0,0,Canada
711,Iceland,Iceland,64.9631,-19.0208,0,2020-01-26,0,0,Iceland
712,Lithuania,Lithuania,55.1694,23.8813,0,2020-01-26,0,0,Lithuania
713,Mexico,Mexico,23.6345,-102.5528,0,2020-01-26,0,0,Mexico
714,New Zealand,New Zealand,-40.9006,174.886,0,2020-01-26,0,0,New Zealand
715,Nigeria,Nigeria,9.082,8.6753,0,2020-01-26,0,0,Nigeria
716,Western Australia,Australia,-31.9505,115.8605,0,2020-01-26,0,0,Australia
717,Ireland,Ireland,53.1424,-7.6921,0,2020-01-26,0,0,Ireland
718,Luxembourg,Luxembourg,49.8153,6.1296,0,2020-01-26,0,0,Luxembourg
719,Monaco,Monaco,43.7333,7.4167,0,2020-01-26,0,0,Monaco
720,Qatar,Qatar,25.3548,51.1839,0,2020-01-26,0,0,Qatar
721,"Snohomish County, WA",United States of America,48.033,-121.8339,0,2020-01-26,0,0,United States of America
722,Ecuador,Ecuador,-1.8312,-78.1834,0,2020-01-26,0,0,Ecuador
723,Azerbaijan,Azerbaijan,40.1431,47.5769,0,2020-01-26,0,0,Azerbaijan
724,Czech Republic,Czech Republic,49.8175,15.472999999999999,0,2020-01-26,0,0,Czech Republic
725,Armenia,Armenia,40.0691,45.0382,0,2020-01-26,0,0,Armenia
726,Dominican Republic,Dominican Republic,18.7357,-70.1627,0,2020-01-26,0,0,Dominican Republic
727,"Providence, RI",United States of America,41.824,-71.4128,0,2020-01-26,0,0,United States of America
728,Indonesia,Indonesia,-0.7893,113.9213,0,2020-01-26,0,0,Indonesia
729,Portugal,Portugal,39.3999,-8.2245,0,2020-01-26,0,0,Portugal
730,Andorra,Andorra,42.5063,1.5218,0,2020-01-26,0,0,Andorra
731,Tasmania,Australia,-41.4545,145.9707,0,2020-01-26,0,0,Australia
732,Latvia,Latvia,56.8796,24.6032,0,2020-01-26,0,0,Latvia
733,Morocco,Morocco,31.7917,-7.0926,0,2020-01-26,0,0,Morocco
734,Saudi Arabia,Saudi Arabia,24.0,45.0,0,2020-01-26,0,0,Saudi Arabia
735,Senegal,Senegal,14.4974,-14.4524,0,2020-01-26,0,0,Senegal
736,"Grafton County, NH",United States of America,43.9088,-71.82600000000001,0,2020-01-26,0,0,United States of America
737,"Hillsborough, FL",United States of America,27.9904,-82.3018,0,2020-01-26,0,0,United States of America
738,"New York City, NY",United States of America,40.7128,-74.006,0,2020-01-26,0,0,United States of America
739,"Placer County, CA",United States of America,39.0916,-120.8039,0,2020-01-26,0,0,United States of America
740,"San Mateo, CA",United States of America,37.563,-122.3255,0,2020-01-26,0,0,United States of America
741,"Sarasota, FL",United States of America,27.3364,-82.5307,0,2020-01-26,0,0,United States of America
742,"Sonoma County, CA",United States of America,38.578,-122.9888,0,2020-01-26,0,0,United States of America
743,"Umatilla, OR",United States of America,45.775,-118.7606,0,2020-01-26,0,0,United States of America
744,"Fulton County, GA",United States of America,33.8034,-84.3963,0,2020-01-26,0,0,United States of America
745,"Washington County, OR",United States of America,45.547,-123.1386,0,2020-01-26,0,0,United States of America
746,Argentina,Argentina,-38.4161,-63.6167,0,2020-01-26,0,0,Argentina
747,Chile,Chile,-35.6751,-71.543,0,2020-01-26,0,0,Chile
748,Jordan,Jordan,31.24,36.51,0,2020-01-26,0,0,Jordan
749," Norfolk County, MA",United States of America,42.1767,-71.1449,0,2020-01-26,0,0,United States of America
750,"Berkeley, CA",United States of America,37.8715,-122.273,0,2020-01-26,0,0,United States of America
751,"Maricopa County, AZ",United States of America,33.2918,-112.4291,0,2020-01-26,0,0,United States of America
752,"Wake County, NC",United States of America,35.8032,-78.5661,0,2020-01-26,0,0,United States of America
753,"Westchester County, NY",United States of America,41.122,-73.7949,0,2020-01-26,0,0,United States of America
754,Ukraine,Ukraine,48.3794,31.1656,0,2020-01-26,0,0,Ukraine
755,Anhui,China,31.8257,117.2264,70,2020-01-27,0,0,China
756,Beijing,China,40.1824,116.4142,80,2020-01-27,2,1,China
757,Chongqing,China,30.0572,107.874,110,2020-01-27,0,0,China
758,Fujian,China,26.0789,117.9874,59,2020-01-27,0,0,China
759,Gansu,China,36.0611,103.8343,14,2020-01-27,0,0,China
760,Guangdong,China,23.3417,113.4244,151,2020-01-27,4,0,China
761,Guangxi,China,23.8298,108.7881,46,2020-01-27,0,0,China
762,Guizhou,China,26.8154,106.8748,7,2020-01-27,0,0,China
763,Hainan,China,19.1959,109.7453,33,2020-01-27,0,1,China
764,Hebei,China,38.0428,114.5149,18,2020-01-27,0,1,China
765,Heilongjiang,China,47.861999999999995,127.7615,21,2020-01-27,0,1,China
766,Henan,China,33.882020000000004,113.61399999999999,128,2020-01-27,0,1,China
767,Hubei,China,30.9756,112.2707,1423,2020-01-27,45,76,China
768,Hunan,China,27.6104,111.7088,100,2020-01-27,0,0,China
769,Inner Mongolia,China,44.0935,113.9448,11,2020-01-27,0,0,China
770,Jiangsu,China,32.9711,119.455,47,2020-01-27,1,0,China
771,Jiangxi,China,27.614,115.7221,72,2020-01-27,2,0,China
772,Jilin,China,43.6661,126.1923,6,2020-01-27,0,0,China
773,Liaoning,China,41.2956,122.6085,27,2020-01-27,0,0,China
774,Ningxia,China,37.2692,106.1655,7,2020-01-27,0,0,China
775,Qinghai,China,35.7452,95.9956,6,2020-01-27,0,0,China
776,Shaanxi,China,35.1917,108.8701,35,2020-01-27,0,0,China
777,Shandong,China,36.3427,118.1498,75,2020-01-27,0,0,China
778,Shanghai,China,31.201999999999998,121.4491,53,2020-01-27,3,1,China
779,Shanxi,China,37.5777,112.2922,13,2020-01-27,0,0,China
780,Sichuan,China,30.6171,102.7103,69,2020-01-27,0,0,China
781,Tianjin,China,39.3054,117.323,23,2020-01-27,0,0,China
782,Tibet,China,31.6927,88.0924,0,2020-01-27,0,0,China
783,Xinjiang,China,41.1129,85.2401,5,2020-01-27,0,0,China
784,Yunnan,China,24.974,101.48700000000001,26,2020-01-27,0,0,China
785,Zhejiang,China,29.1832,120.0934,128,2020-01-27,1,0,China
786,Thailand,Thailand,15.0,101.0,8,2020-01-27,2,0,Thailand
787,Japan,Japan,36.0,138.0,4,2020-01-27,1,0,Japan
788,South Korea,South Korea,36.0,128.0,4,2020-01-27,0,0,South Korea
789,Taiwan,Taiwan,23.7,121.0,5,2020-01-27,0,0,Taiwan
790,"King County, WA",United States of America,47.6062,-122.3321,1,2020-01-27,0,0,United States of America
791,"Cook County, IL",United States of America,41.7377,-87.6976,1,2020-01-27,0,0,United States of America
792,"Tempe, AZ",United States of America,33.4255,-111.94,1,2020-01-27,0,0,United States of America
793,Macau,Macau,22.1667,113.55,6,2020-01-27,0,0,Macau
794,Hong Kong,Hong Kong,22.3,114.2,8,2020-01-27,0,0,Hong Kong
795,Singapore,Singapore,1.2833,103.8333,5,2020-01-27,0,0,Singapore
796,Vietnam,Vietnam,16.0,108.0,2,2020-01-27,0,0,Vietnam
797,France,France,47.0,2.0,3,2020-01-27,0,0,France
798,Nepal,Nepal,28.1667,84.25,1,2020-01-27,0,0,Nepal
799,Malaysia,Malaysia,2.5,112.5,4,2020-01-27,0,0,Malaysia
800,"Toronto, ON",Canada,43.6532,-79.3832,1,2020-01-27,0,0,Canada
801,British Columbia,Canada,49.2827,-123.1207,0,2020-01-27,0,0,Canada
802,"Orange, CA",United States of America,33.7879,-117.8531,1,2020-01-27,0,0,United States of America
803,"Los Angeles, CA",United States of America,34.0522,-118.2437,1,2020-01-27,0,0,United States of America
804,New South Wales,Australia,-33.8688,151.2093,4,2020-01-27,0,0,Australia
805,Victoria,Australia,-37.8136,144.9631,1,2020-01-27,0,0,Australia
806,Queensland,Australia,-28.0167,153.4,0,2020-01-27,0,0,Australia
807,Cambodia,Cambodia,11.55,104.9167,1,2020-01-27,0,0,Cambodia
808,Sri Lanka,Sri Lanka,7.0,81.0,1,2020-01-27,0,0,Sri Lanka
809,Germany,Germany,51.0,9.0,1,2020-01-27,0,0,Germany
810,Finland,Finland,64.0,26.0,0,2020-01-27,0,0,Finland
811,United Arab Emirates,United Arab Emirates,24.0,54.0,0,2020-01-27,0,0,United Arab Emirates
812,Philippines,Philippines,13.0,122.0,0,2020-01-27,0,0,Philippines
813,India,India,21.0,78.0,0,2020-01-27,0,0,India
814,"London, ON",Canada,42.9849,-81.2453,0,2020-01-27,0,0,Canada
815,Italy,Italy,43.0,12.0,0,2020-01-27,0,0,Italy
816,UK,UK,55.0,-3.0,0,2020-01-27,0,0,UK
817,Russia,Russia,60.0,90.0,0,2020-01-27,0,0,Russia
818,Sweden,Sweden,63.0,16.0,0,2020-01-27,0,0,Sweden
819,"Santa Clara, CA",United States of America,37.3541,-121.9552,0,2020-01-27,0,0,United States of America
820,Spain,Spain,40.0,-4.0,0,2020-01-27,0,0,Spain
821,South Australia,Australia,-34.9285,138.6007,0,2020-01-27,0,0,Australia
822,"Boston, MA",United States of America,42.3601,-71.0589,0,2020-01-27,0,0,United States of America
823,"San Benito, CA",United States of America,36.5761,-120.9876,0,2020-01-27,0,0,United States of America
824,Belgium,Belgium,50.8333,4.0,0,2020-01-27,0,0,Belgium
825,"Madison, WI",United States of America,43.0731,-89.4012,0,2020-01-27,0,0,United States of America
826,Diamond Princess cruise ship,Others,35.4437,139.638,0,2020-01-27,0,0,Others
827,"San Diego County, CA",United States of America,32.7157,-117.1611,0,2020-01-27,0,0,United States of America
828,"San Antonio, TX",United States of America,29.4241,-98.4936,0,2020-01-27,0,0,United States of America
829,Egypt,Egypt,26.0,30.0,0,2020-01-27,0,0,Egypt
830,Iran,Iran,32.0,53.0,0,2020-01-27,0,0,Iran
831,"Omaha, NE (From Diamond Princess)",United States of America,41.2545,-95.9758,0,2020-01-27,0,0,United States of America
832,"Travis, CA (From Diamond Princess)",United States of America,38.2721,-121.9399,0,2020-01-27,0,0,United States of America
833,From Diamond Princess,Australia,35.4437,139.638,0,2020-01-27,0,0,Australia
834,"Lackland, TX (From Diamond Princess)",United States of America,29.3829,-98.6134,0,2020-01-27,0,0,United States of America
835,Lebanon,Lebanon,33.8547,35.8623,0,2020-01-27,0,0,Lebanon
836,"Humboldt County, CA",United States of America,40.745,-123.8695,0,2020-01-27,0,0,United States of America
837,"Sacramento County, CA",United States of America,38.4747,-121.3542,0,2020-01-27,0,0,United States of America
838,Iraq,Iraq,33.0,44.0,0,2020-01-27,0,0,Iraq
839,Unassigned Location (From Diamond Princess),United States of America,35.4437,139.638,0,2020-01-27,0,0,United States of America
840,Oman,Oman,21.0,57.0,0,2020-01-27,0,0,Oman
841,Afghanistan,Afghanistan,33.0,65.0,0,2020-01-27,0,0,Afghanistan
842,Bahrain,Bahrain,26.0275,50.55,0,2020-01-27,0,0,Bahrain
843,Kuwait,Kuwait,29.5,47.75,0,2020-01-27,0,0,Kuwait
844,Algeria,Algeria,28.0339,1.6596,0,2020-01-27,0,0,Algeria
845,Croatia,Croatia,45.1,15.2,0,2020-01-27,0,0,Croatia
846,Switzerland,Switzerland,46.8182,8.2275,0,2020-01-27,0,0,Switzerland
847,Austria,Austria,47.5162,14.5501,0,2020-01-27,0,0,Austria
848,Israel,Israel,31.0,35.0,0,2020-01-27,0,0,Israel
849,Pakistan,Pakistan,30.3753,69.3451,0,2020-01-27,0,0,Pakistan
850,Brazil,Brazil,-14.235,-51.9253,0,2020-01-27,0,0,Brazil
851,Georgia,Georgia,42.3154,43.3569,0,2020-01-27,0,0,Georgia
852,Greece,Greece,39.0742,21.8243,0,2020-01-27,0,0,Greece
853,North Macedonia,North Macedonia,41.6086,21.7453,0,2020-01-27,0,0,North Macedonia
854,Norway,Norway,60.472,8.4689,0,2020-01-27,0,0,Norway
855,Romania,Romania,45.9432,24.9668,0,2020-01-27,0,0,Romania
856,Denmark,Denmark,56.2639,9.5018,0,2020-01-27,0,0,Denmark
857,Estonia,Estonia,58.5953,25.0136,0,2020-01-27,0,0,Estonia
858,Netherlands,Netherlands,52.1326,5.2913,0,2020-01-27,0,0,Netherlands
859,San Marino,San Marino,43.9424,12.4578,0,2020-01-27,0,0,San Marino
860,Belarus,Belarus,53.7098,27.9534,0,2020-01-27,0,0,Belarus
861," Montreal, QC",Canada,45.5017,-73.5673,0,2020-01-27,0,0,Canada
862,Iceland,Iceland,64.9631,-19.0208,0,2020-01-27,0,0,Iceland
863,Lithuania,Lithuania,55.1694,23.8813,0,2020-01-27,0,0,Lithuania
864,Mexico,Mexico,23.6345,-102.5528,0,2020-01-27,0,0,Mexico
865,New Zealand,New Zealand,-40.9006,174.886,0,2020-01-27,0,0,New Zealand
866,Nigeria,Nigeria,9.082,8.6753,0,2020-01-27,0,0,Nigeria
867,Western Australia,Australia,-31.9505,115.8605,0,2020-01-27,0,0,Australia
868,Ireland,Ireland,53.1424,-7.6921,0,2020-01-27,0,0,Ireland
869,Luxembourg,Luxembourg,49.8153,6.1296,0,2020-01-27,0,0,Luxembourg
870,Monaco,Monaco,43.7333,7.4167,0,2020-01-27,0,0,Monaco
871,Qatar,Qatar,25.3548,51.1839,0,2020-01-27,0,0,Qatar
872,"Snohomish County, WA",United States of America,48.033,-121.8339,0,2020-01-27,0,0,United States of America
873,Ecuador,Ecuador,-1.8312,-78.1834,0,2020-01-27,0,0,Ecuador
874,Azerbaijan,Azerbaijan,40.1431,47.5769,0,2020-01-27,0,0,Azerbaijan
875,Czech Republic,Czech Republic,49.8175,15.472999999999999,0,2020-01-27,0,0,Czech Republic
876,Armenia,Armenia,40.0691,45.0382,0,2020-01-27,0,0,Armenia
877,Dominican Republic,Dominican Republic,18.7357,-70.1627,0,2020-01-27,0,0,Dominican Republic
878,"Providence, RI",United States of America,41.824,-71.4128,0,2020-01-27,0,0,United States of America
879,Indonesia,Indonesia,-0.7893,113.9213,0,2020-01-27,0,0,Indonesia
880,Portugal,Portugal,39.3999,-8.2245,0,2020-01-27,0,0,Portugal
881,Andorra,Andorra,42.5063,1.5218,0,2020-01-27,0,0,Andorra
882,Tasmania,Australia,-41.4545,145.9707,0,2020-01-27,0,0,Australia
883,Latvia,Latvia,56.8796,24.6032,0,2020-01-27,0,0,Latvia
884,Morocco,Morocco,31.7917,-7.0926,0,2020-01-27,0,0,Morocco
885,Saudi Arabia,Saudi Arabia,24.0,45.0,0,2020-01-27,0,0,Saudi Arabia
886,Senegal,Senegal,14.4974,-14.4524,0,2020-01-27,0,0,Senegal
887,"Grafton County, NH",United States of America,43.9088,-71.82600000000001,0,2020-01-27,0,0,United States of America
888,"Hillsborough, FL",United States of America,27.9904,-82.3018,0,2020-01-27,0,0,United States of America
889,"New York City, NY",United States of America,40.7128,-74.006,0,2020-01-27,0,0,United States of America
890,"Placer County, CA",United States of America,39.0916,-120.8039,0,2020-01-27,0,0,United States of America
891,"San Mateo, CA",United States of America,37.563,-122.3255,0,2020-01-27,0,0,United States of America
892,"Sarasota, FL",United States of America,27.3364,-82.5307,0,2020-01-27,0,0,United States of America
893,"Sonoma County, CA",United States of America,38.578,-122.9888,0,2020-01-27,0,0,United States of America
894,"Umatilla, OR",United States of America,45.775,-118.7606,0,2020-01-27,0,0,United States of America
895,"Fulton County, GA",United States of America,33.8034,-84.3963,0,2020-01-27,0,0,United States of America
896,"Washington County, OR",United States of America,45.547,-123.1386,0,2020-01-27,0,0,United States of America
897,Argentina,Argentina,-38.4161,-63.6167,0,2020-01-27,0,0,Argentina
898,Chile,Chile,-35.6751,-71.543,0,2020-01-27,0,0,Chile
899,Jordan,Jordan,31.24,36.51,0,2020-01-27,0,0,Jordan
900," Norfolk County, MA",United States of America,42.1767,-71.1449,0,2020-01-27,0,0,United States of America
901,"Berkeley, CA",United States of America,37.8715,-122.273,0,2020-01-27,0,0,United States of America
902,"Maricopa County, AZ",United States of America,33.2918,-112.4291,0,2020-01-27,0,0,United States of America
903,"Wake County, NC",United States of America,35.8032,-78.5661,0,2020-01-27,0,0,United States of America
904,"Westchester County, NY",United States of America,41.122,-73.7949,0,2020-01-27,0,0,United States of America
905,Ukraine,Ukraine,48.3794,31.1656,0,2020-01-27,0,0,Ukraine
906,Anhui,China,31.8257,117.2264,106,2020-01-28,0,0,China
907,Beijing,China,40.1824,116.4142,91,2020-01-28,4,1,China
908,Chongqing,China,30.0572,107.874,132,2020-01-28,0,0,China
909,Fujian,China,26.0789,117.9874,80,2020-01-28,0,0,China
910,Gansu,China,36.0611,103.8343,19,2020-01-28,0,0,China
911,Guangdong,China,23.3417,113.4244,207,2020-01-28,4,0,China
912,Guangxi,China,23.8298,108.7881,51,2020-01-28,2,0,China
913,Guizhou,China,26.8154,106.8748,9,2020-01-28,0,0,China
914,Hainan,China,19.1959,109.7453,40,2020-01-28,0,1,China
915,Hebei,China,38.0428,114.5149,33,2020-01-28,0,1,China
916,Heilongjiang,China,47.861999999999995,127.7615,33,2020-01-28,0,1,China
917,Henan,China,33.882020000000004,113.61399999999999,168,2020-01-28,0,1,China
918,Hubei,China,30.9756,112.2707,3554,2020-01-28,80,125,China
919,Hunan,China,27.6104,111.7088,143,2020-01-28,0,0,China
920,Inner Mongolia,China,44.0935,113.9448,15,2020-01-28,0,0,China
921,Jiangsu,China,32.9711,119.455,70,2020-01-28,1,0,China
922,Jiangxi,China,27.614,115.7221,109,2020-01-28,3,0,China
923,Jilin,China,43.6661,126.1923,8,2020-01-28,0,0,China
924,Liaoning,China,41.2956,122.6085,34,2020-01-28,0,0,China
925,Ningxia,China,37.2692,106.1655,11,2020-01-28,0,0,China
926,Qinghai,China,35.7452,95.9956,6,2020-01-28,0,0,China
927,Shaanxi,China,35.1917,108.8701,46,2020-01-28,0,0,China
928,Shandong,China,36.3427,118.1498,95,2020-01-28,0,0,China
929,Shanghai,China,31.201999999999998,121.4491,66,2020-01-28,4,1,China
930,Shanxi,China,37.5777,112.2922,27,2020-01-28,0,0,China
931,Sichuan,China,30.6171,102.7103,90,2020-01-28,0,0,China
932,Tianjin,China,39.3054,117.323,24,2020-01-28,0,0,China
933,Tibet,China,31.6927,88.0924,0,2020-01-28,0,0,China
934,Xinjiang,China,41.1129,85.2401,10,2020-01-28,0,0,China
935,Yunnan,China,24.974,101.48700000000001,44,2020-01-28,0,0,China
936,Zhejiang,China,29.1832,120.0934,173,2020-01-28,3,0,China
937,Thailand,Thailand,15.0,101.0,14,2020-01-28,5,0,Thailand
938,Japan,Japan,36.0,138.0,7,2020-01-28,1,0,Japan
939,South Korea,South Korea,36.0,128.0,4,2020-01-28,0,0,South Korea
940,Taiwan,Taiwan,23.7,121.0,8,2020-01-28,0,0,Taiwan
941,"King County, WA",United States of America,47.6062,-122.3321,1,2020-01-28,0,0,United States of America
942,"Cook County, IL",United States of America,41.7377,-87.6976,1,2020-01-28,0,0,United States of America
943,"Tempe, AZ",United States of America,33.4255,-111.94,1,2020-01-28,0,0,United States of America
944,Macau,Macau,22.1667,113.55,7,2020-01-28,0,0,Macau
945,Hong Kong,Hong Kong,22.3,114.2,8,2020-01-28,0,0,Hong Kong
946,Singapore,Singapore,1.2833,103.8333,7,2020-01-28,0,0,Singapore
947,Vietnam,Vietnam,16.0,108.0,2,2020-01-28,0,0,Vietnam
948,France,France,47.0,2.0,4,2020-01-28,0,0,France
949,Nepal,Nepal,28.1667,84.25,1,2020-01-28,0,0,Nepal
950,Malaysia,Malaysia,2.5,112.5,4,2020-01-28,0,0,Malaysia
951,"Toronto, ON",Canada,43.6532,-79.3832,1,2020-01-28,0,0,Canada
952,British Columbia,Canada,49.2827,-123.1207,1,2020-01-28,0,0,Canada
953,"Orange, CA",United States of America,33.7879,-117.8531,1,2020-01-28,0,0,United States of America
954,"Los Angeles, CA",United States of America,34.0522,-118.2437,1,2020-01-28,0,0,United States of America
955,New South Wales,Australia,-33.8688,151.2093,4,2020-01-28,0,0,Australia
956,Victoria,Australia,-37.8136,144.9631,1,2020-01-28,0,0,Australia
957,Queensland,Australia,-28.0167,153.4,0,2020-01-28,0,0,Australia
958,Cambodia,Cambodia,11.55,104.9167,1,2020-01-28,0,0,Cambodia
959,Sri Lanka,Sri Lanka,7.0,81.0,1,2020-01-28,0,0,Sri Lanka
960,Germany,Germany,51.0,9.0,4,2020-01-28,0,0,Germany
961,Finland,Finland,64.0,26.0,0,2020-01-28,0,0,Finland
962,United Arab Emirates,United Arab Emirates,24.0,54.0,0,2020-01-28,0,0,United Arab Emirates
963,Philippines,Philippines,13.0,122.0,0,2020-01-28,0,0,Philippines
964,India,India,21.0,78.0,0,2020-01-28,0,0,India
965,"London, ON",Canada,42.9849,-81.2453,0,2020-01-28,0,0,Canada
966,Italy,Italy,43.0,12.0,0,2020-01-28,0,0,Italy
967,UK,UK,55.0,-3.0,0,2020-01-28,0,0,UK
968,Russia,Russia,60.0,90.0,0,2020-01-28,0,0,Russia
969,Sweden,Sweden,63.0,16.0,0,2020-01-28,0,0,Sweden
970,"Santa Clara, CA",United States of America,37.3541,-121.9552,0,2020-01-28,0,0,United States of America
971,Spain,Spain,40.0,-4.0,0,2020-01-28,0,0,Spain
972,South Australia,Australia,-34.9285,138.6007,0,2020-01-28,0,0,Australia
973,"Boston, MA",United States of America,42.3601,-71.0589,0,2020-01-28,0,0,United States of America
974,"San Benito, CA",United States of America,36.5761,-120.9876,0,2020-01-28,0,0,United States of America
975,Belgium,Belgium,50.8333,4.0,0,2020-01-28,0,0,Belgium
976,"Madison, WI",United States of America,43.0731,-89.4012,0,2020-01-28,0,0,United States of America
977,Diamond Princess cruise ship,Others,35.4437,139.638,0,2020-01-28,0,0,Others
978,"San Diego County, CA",United States of America,32.7157,-117.1611,0,2020-01-28,0,0,United States of America
979,"San Antonio, TX",United States of America,29.4241,-98.4936,0,2020-01-28,0,0,United States of America
980,Egypt,Egypt,26.0,30.0,0,2020-01-28,0,0,Egypt
981,Iran,Iran,32.0,53.0,0,2020-01-28,0,0,Iran
982,"Omaha, NE (From Diamond Princess)",United States of America,41.2545,-95.9758,0,2020-01-28,0,0,United States of America
983,"Travis, CA (From Diamond Princess)",United States of America,38.2721,-121.9399,0,2020-01-28,0,0,United States of America
984,From Diamond Princess,Australia,35.4437,139.638,0,2020-01-28,0,0,Australia
985,"Lackland, TX (From Diamond Princess)",United States of America,29.3829,-98.6134,0,2020-01-28,0,0,United States of America
986,Lebanon,Lebanon,33.8547,35.8623,0,2020-01-28,0,0,Lebanon
987,"Humboldt County, CA",United States of America,40.745,-123.8695,0,2020-01-28,0,0,United States of America
988,"Sacramento County, CA",United States of America,38.4747,-121.3542,0,2020-01-28,0,0,United States of America
989,Iraq,Iraq,33.0,44.0,0,2020-01-28,0,0,Iraq
990,Unassigned Location (From Diamond Princess),United States of America,35.4437,139.638,0,2020-01-28,0,0,United States of America
991,Oman,Oman,21.0,57.0,0,2020-01-28,0,0,Oman
992,Afghanistan,Afghanistan,33.0,65.0,0,2020-01-28,0,0,Afghanistan
993,Bahrain,Bahrain,26.0275,50.55,0,2020-01-28,0,0,Bahrain
994,Kuwait,Kuwait,29.5,47.75,0,2020-01-28,0,0,Kuwait
995,Algeria,Algeria,28.0339,1.6596,0,2020-01-28,0,0,Algeria
996,Croatia,Croatia,45.1,15.2,0,2020-01-28,0,0,Croatia
997,Switzerland,Switzerland,46.8182,8.2275,0,2020-01-28,0,0,Switzerland
998,Austria,Austria,47.5162,14.5501,0,2020-01-28,0,0,Austria
999,Israel,Israel,31.0,35.0,0,2020-01-28,0,0,Israel
1000,Pakistan,Pakistan,30.3753,69.3451,0,2020-01-28,0,0,Pakistan
1001,Brazil,Brazil,-14.235,-51.9253,0,2020-01-28,0,0,Brazil
1002,Georgia,Georgia,42.3154,43.3569,0,2020-01-28,0,0,Georgia
1003,Greece,Greece,39.0742,21.8243,0,2020-01-28,0,0,Greece
1004,North Macedonia,North Macedonia,41.6086,21.7453,0,2020-01-28,0,0,North Macedonia
1005,Norway,Norway,60.472,8.4689,0,2020-01-28,0,0,Norway
1006,Romania,Romania,45.9432,24.9668,0,2020-01-28,0,0,Romania
1007,Denmark,Denmark,56.2639,9.5018,0,2020-01-28,0,0,Denmark
1008,Estonia,Estonia,58.5953,25.0136,0,2020-01-28,0,0,Estonia
1009,Netherlands,Netherlands,52.1326,5.2913,0,2020-01-28,0,0,Netherlands
1010,San Marino,San Marino,43.9424,12.4578,0,2020-01-28,0,0,San Marino
1011,Belarus,Belarus,53.7098,27.9534,0,2020-01-28,0,0,Belarus
1012," Montreal, QC",Canada,45.5017,-73.5673,0,2020-01-28,0,0,Canada
1013,Iceland,Iceland,64.9631,-19.0208,0,2020-01-28,0,0,Iceland
1014,Lithuania,Lithuania,55.1694,23.8813,0,2020-01-28,0,0,Lithuania
1015,Mexico,Mexico,23.6345,-102.5528,0,2020-01-28,0,0,Mexico
1016,New Zealand,New Zealand,-40.9006,174.886,0,2020-01-28,0,0,New Zealand
1017,Nigeria,Nigeria,9.082,8.6753,0,2020-01-28,0,0,Nigeria
1018,Western Australia,Australia,-31.9505,115.8605,0,2020-01-28,0,0,Australia
1019,Ireland,Ireland,53.1424,-7.6921,0,2020-01-28,0,0,Ireland
1020,Luxembourg,Luxembourg,49.8153,6.1296,0,2020-01-28,0,0,Luxembourg
1021,Monaco,Monaco,43.7333,7.4167,0,2020-01-28,0,0,Monaco
1022,Qatar,Qatar,25.3548,51.1839,0,2020-01-28,0,0,Qatar
1023,"Snohomish County, WA",United States of America,48.033,-121.8339,0,2020-01-28,0,0,United States of America
1024,Ecuador,Ecuador,-1.8312,-78.1834,0,2020-01-28,0,0,Ecuador
1025,Azerbaijan,Azerbaijan,40.1431,47.5769,0,2020-01-28,0,0,Azerbaijan
1026,Czech Republic,Czech Republic,49.8175,15.472999999999999,0,2020-01-28,0,0,Czech Republic
1027,Armenia,Armenia,40.0691,45.0382,0,2020-01-28,0,0,Armenia
1028,Dominican Republic,Dominican Republic,18.7357,-70.1627,0,2020-01-28,0,0,Dominican Republic
1029,"Providence, RI",United States of America,41.824,-71.4128,0,2020-01-28,0,0,United States of America
1030,Indonesia,Indonesia,-0.7893,113.9213,0,2020-01-28,0,0,Indonesia
1031,Portugal,Portugal,39.3999,-8.2245,0,2020-01-28,0,0,Portugal
1032,Andorra,Andorra,42.5063,1.5218,0,2020-01-28,0,0,Andorra
1033,Tasmania,Australia,-41.4545,145.9707,0,2020-01-28,0,0,Australia
1034,Latvia,Latvia,56.8796,24.6032,0,2020-01-28,0,0,Latvia
1035,Morocco,Morocco,31.7917,-7.0926,0,2020-01-28,0,0,Morocco
1036,Saudi Arabia,Saudi Arabia,24.0,45.0,0,2020-01-28,0,0,Saudi Arabia
1037,Senegal,Senegal,14.4974,-14.4524,0,2020-01-28,0,0,Senegal
1038,"Grafton County, NH",United States of America,43.9088,-71.82600000000001,0,2020-01-28,0,0,United States of America
1039,"Hillsborough, FL",United States of America,27.9904,-82.3018,0,2020-01-28,0,0,United States of America
1040,"New York City, NY",United States of America,40.7128,-74.006,0,2020-01-28,0,0,United States of America
1041,"Placer County, CA",United States of America,39.0916,-120.8039,0,2020-01-28,0,0,United States of America
1042,"San Mateo, CA",United States of America,37.563,-122.3255,0,2020-01-28,0,0,United States of America
1043,"Sarasota, FL",United States of America,27.3364,-82.5307,0,2020-01-28,0,0,United States of America
1044,"Sonoma County, CA",United States of America,38.578,-122.9888,0,2020-01-28,0,0,United States of America
1045,"Umatilla, OR",United States of America,45.775,-118.7606,0,2020-01-28,0,0,United States of America
1046,"Fulton County, GA",United States of America,33.8034,-84.3963,0,2020-01-28,0,0,United States of America
1047,"Washington County, OR",United States of America,45.547,-123.1386,0,2020-01-28,0,0,United States of America
1048,Argentina,Argentina,-38.4161,-63.6167,0,2020-01-28,0,0,Argentina
1049,Chile,Chile,-35.6751,-71.543,0,2020-01-28,0,0,Chile
1050,Jordan,Jordan,31.24,36.51,0,2020-01-28,0,0,Jordan
1051," Norfolk County, MA",United States of America,42.1767,-71.1449,0,2020-01-28,0,0,United States of America
1052,"Berkeley, CA",United States of America,37.8715,-122.273,0,2020-01-28,0,0,United States of America
1053,"Maricopa County, AZ",United States of America,33.2918,-112.4291,0,2020-01-28,0,0,United States of America
1054,"Wake County, NC",United States of America,35.8032,-78.5661,0,2020-01-28,0,0,United States of America
1055,"Westchester County, NY",United States of America,41.122,-73.7949,0,2020-01-28,0,0,United States of America
1056,Ukraine,Ukraine,48.3794,31.1656,0,2020-01-28,0,0,Ukraine
1057,Anhui,China,31.8257,117.2264,152,2020-01-29,2,0,China
1058,Beijing,China,40.1824,116.4142,111,2020-01-29,4,1,China
1059,Chongqing,China,30.0572,107.874,147,2020-01-29,1,0,China
1060,Fujian,China,26.0789,117.9874,84,2020-01-29,0,0,China
1061,Gansu,China,36.0611,103.8343,24,2020-01-29,0,0,China
1062,Guangdong,China,23.3417,113.4244,277,2020-01-29,5,0,China
1063,Guangxi,China,23.8298,108.7881,58,2020-01-29,2,0,China
1064,Guizhou,China,26.8154,106.8748,9,2020-01-29,1,0,China
1065,Hainan,China,19.1959,109.7453,43,2020-01-29,0,1,China
1066,Hebei,China,38.0428,114.5149,48,2020-01-29,0,1,China
1067,Heilongjiang,China,47.861999999999995,127.7615,38,2020-01-29,0,1,China
1068,Henan,China,33.882020000000004,113.61399999999999,206,2020-01-29,1,2,China
1069,Hubei,China,30.9756,112.2707,3554,2020-01-29,88,125,China
1070,Hunan,China,27.6104,111.7088,221,2020-01-29,0,0,China
1071,Inner Mongolia,China,44.0935,113.9448,16,2020-01-29,0,0,China
1072,Jiangsu,China,32.9711,119.455,99,2020-01-29,1,0,China
1073,Jiangxi,China,27.614,115.7221,109,2020-01-29,3,0,China
1074,Jilin,China,43.6661,126.1923,9,2020-01-29,0,0,China
1075,Liaoning,China,41.2956,122.6085,39,2020-01-29,1,0,China
1076,Ningxia,China,37.2692,106.1655,12,2020-01-29,0,0,China
1077,Qinghai,China,35.7452,95.9956,6,2020-01-29,0,0,China
1078,Shaanxi,China,35.1917,108.8701,56,2020-01-29,0,0,China
1079,Shandong,China,36.3427,118.1498,130,2020-01-29,1,0,China
1080,Shanghai,China,31.201999999999998,121.4491,96,2020-01-29,5,1,China
1081,Shanxi,China,37.5777,112.2922,27,2020-01-29,1,0,China
1082,Sichuan,China,30.6171,102.7103,108,2020-01-29,1,1,China
1083,Tianjin,China,39.3054,117.323,27,2020-01-29,0,0,China
1084,Tibet,China,31.6927,88.0924,0,2020-01-29,0,0,China
1085,Xinjiang,China,41.1129,85.2401,13,2020-01-29,0,0,China
1086,Yunnan,China,24.974,101.48700000000001,55,2020-01-29,0,0,China
1087,Zhejiang,China,29.1832,120.0934,296,2020-01-29,3,0,China
1088,Thailand,Thailand,15.0,101.0,14,2020-01-29,5,0,Thailand
1089,Japan,Japan,36.0,138.0,7,2020-01-29,1,0,Japan
1090,South Korea,South Korea,36.0,128.0,4,2020-01-29,0,0,South Korea
1091,Taiwan,Taiwan,23.7,121.0,8,2020-01-29,0,0,Taiwan
1092,"King County, WA",United States of America,47.6062,-122.3321,1,2020-01-29,0,0,United States of America
1093,"Cook County, IL",United States of America,41.7377,-87.6976,1,2020-01-29,0,0,United States of America
1094,"Tempe, AZ",United States of America,33.4255,-111.94,1,2020-01-29,0,0,United States of America
1095,Macau,Macau,22.1667,113.55,7,2020-01-29,0,0,Macau
1096,Hong Kong,Hong Kong,22.3,114.2,10,2020-01-29,0,0,Hong Kong
1097,Singapore,Singapore,1.2833,103.8333,7,2020-01-29,0,0,Singapore
1098,Vietnam,Vietnam,16.0,108.0,2,2020-01-29,0,0,Vietnam
1099,France,France,47.0,2.0,5,2020-01-29,0,0,France
1100,Nepal,Nepal,28.1667,84.25,1,2020-01-29,0,0,Nepal
1101,Malaysia,Malaysia,2.5,112.5,7,2020-01-29,0,0,Malaysia
1102,"Toronto, ON",Canada,43.6532,-79.3832,1,2020-01-29,0,0,Canada
1103,British Columbia,Canada,49.2827,-123.1207,1,2020-01-29,0,0,Canada
1104,"Orange, CA",United States of America,33.7879,-117.8531,1,2020-01-29,0,0,United States of America
1105,"Los Angeles, CA",United States of America,34.0522,-118.2437,1,2020-01-29,0,0,United States of America
1106,New South Wales,Australia,-33.8688,151.2093,4,2020-01-29,0,0,Australia
1107,Victoria,Australia,-37.8136,144.9631,1,2020-01-29,0,0,Australia
1108,Queensland,Australia,-28.0167,153.4,1,2020-01-29,0,0,Australia
1109,Cambodia,Cambodia,11.55,104.9167,1,2020-01-29,0,0,Cambodia
1110,Sri Lanka,Sri Lanka,7.0,81.0,1,2020-01-29,0,0,Sri Lanka
1111,Germany,Germany,51.0,9.0,4,2020-01-29,0,0,Germany
1112,Finland,Finland,64.0,26.0,1,2020-01-29,0,0,Finland
1113,United Arab Emirates,United Arab Emirates,24.0,54.0,4,2020-01-29,0,0,United Arab Emirates
1114,Philippines,Philippines,13.0,122.0,0,2020-01-29,0,0,Philippines
1115,India,India,21.0,78.0,0,2020-01-29,0,0,India
1116,"London, ON",Canada,42.9849,-81.2453,0,2020-01-29,0,0,Canada
1117,Italy,Italy,43.0,12.0,0,2020-01-29,0,0,Italy
1118,UK,UK,55.0,-3.0,0,2020-01-29,0,0,UK
1119,Russia,Russia,60.0,90.0,0,2020-01-29,0,0,Russia
1120,Sweden,Sweden,63.0,16.0,0,2020-01-29,0,0,Sweden
1121,"Santa Clara, CA",United States of America,37.3541,-121.9552,0,2020-01-29,0,0,United States of America
1122,Spain,Spain,40.0,-4.0,0,2020-01-29,0,0,Spain
1123,South Australia,Australia,-34.9285,138.6007,0,2020-01-29,0,0,Australia
1124,"Boston, MA",United States of America,42.3601,-71.0589,0,2020-01-29,0,0,United States of America
1125,"San Benito, CA",United States of America,36.5761,-120.9876,0,2020-01-29,0,0,United States of America
1126,Belgium,Belgium,50.8333,4.0,0,2020-01-29,0,0,Belgium
1127,"Madison, WI",United States of America,43.0731,-89.4012,0,2020-01-29,0,0,United States of America
1128,Diamond Princess cruise ship,Others,35.4437,139.638,0,2020-01-29,0,0,Others
1129,"San Diego County, CA",United States of America,32.7157,-117.1611,0,2020-01-29,0,0,United States of America
1130,"San Antonio, TX",United States of America,29.4241,-98.4936,0,2020-01-29,0,0,United States of America
1131,Egypt,Egypt,26.0,30.0,0,2020-01-29,0,0,Egypt
1132,Iran,Iran,32.0,53.0,0,2020-01-29,0,0,Iran
1133,"Omaha, NE (From Diamond Princess)",United States of America,41.2545,-95.9758,0,2020-01-29,0,0,United States of America
1134,"Travis, CA (From Diamond Princess)",United States of America,38.2721,-121.9399,0,2020-01-29,0,0,United States of America
1135,From Diamond Princess,Australia,35.4437,139.638,0,2020-01-29,0,0,Australia
1136,"Lackland, TX (From Diamond Princess)",United States of America,29.3829,-98.6134,0,2020-01-29,0,0,United States of America
1137,Lebanon,Lebanon,33.8547,35.8623,0,2020-01-29,0,0,Lebanon
1138,"Humboldt County, CA",United States of America,40.745,-123.8695,0,2020-01-29,0,0,United States of America
1139,"Sacramento County, CA",United States of America,38.4747,-121.3542,0,2020-01-29,0,0,United States of America
1140,Iraq,Iraq,33.0,44.0,0,2020-01-29,0,0,Iraq
1141,Unassigned Location (From Diamond Princess),United States of America,35.4437,139.638,0,2020-01-29,0,0,United States of America
1142,Oman,Oman,21.0,57.0,0,2020-01-29,0,0,Oman
1143,Afghanistan,Afghanistan,33.0,65.0,0,2020-01-29,0,0,Afghanistan
1144,Bahrain,Bahrain,26.0275,50.55,0,2020-01-29,0,0,Bahrain
1145,Kuwait,Kuwait,29.5,47.75,0,2020-01-29,0,0,Kuwait
1146,Algeria,Algeria,28.0339,1.6596,0,2020-01-29,0,0,Algeria
1147,Croatia,Croatia,45.1,15.2,0,2020-01-29,0,0,Croatia
1148,Switzerland,Switzerland,46.8182,8.2275,0,2020-01-29,0,0,Switzerland
1149,Austria,Austria,47.5162,14.5501,0,2020-01-29,0,0,Austria
1150,Israel,Israel,31.0,35.0,0,2020-01-29,0,0,Israel
1151,Pakistan,Pakistan,30.3753,69.3451,0,2020-01-29,0,0,Pakistan
1152,Brazil,Brazil,-14.235,-51.9253,0,2020-01-29,0,0,Brazil
1153,Georgia,Georgia,42.3154,43.3569,0,2020-01-29,0,0,Georgia
1154,Greece,Greece,39.0742,21.8243,0,2020-01-29,0,0,Greece
1155,North Macedonia,North Macedonia,41.6086,21.7453,0,2020-01-29,0,0,North Macedonia
1156,Norway,Norway,60.472,8.4689,0,2020-01-29,0,0,Norway
1157,Romania,Romania,45.9432,24.9668,0,2020-01-29,0,0,Romania
1158,Denmark,Denmark,56.2639,9.5018,0,2020-01-29,0,0,Denmark
1159,Estonia,Estonia,58.5953,25.0136,0,2020-01-29,0,0,Estonia
1160,Netherlands,Netherlands,52.1326,5.2913,0,2020-01-29,0,0,Netherlands
1161,San Marino,San Marino,43.9424,12.4578,0,2020-01-29,0,0,San Marino
1162,Belarus,Belarus,53.7098,27.9534,0,2020-01-29,0,0,Belarus
1163," Montreal, QC",Canada,45.5017,-73.5673,0,2020-01-29,0,0,Canada
1164,Iceland,Iceland,64.9631,-19.0208,0,2020-01-29,0,0,Iceland
1165,Lithuania,Lithuania,55.1694,23.8813,0,2020-01-29,0,0,Lithuania
1166,Mexico,Mexico,23.6345,-102.5528,0,2020-01-29,0,0,Mexico
1167,New Zealand,New Zealand,-40.9006,174.886,0,2020-01-29,0,0,New Zealand
1168,Nigeria,Nigeria,9.082,8.6753,0,2020-01-29,0,0,Nigeria
1169,Western Australia,Australia,-31.9505,115.8605,0,2020-01-29,0,0,Australia
1170,Ireland,Ireland,53.1424,-7.6921,0,2020-01-29,0,0,Ireland
1171,Luxembourg,Luxembourg,49.8153,6.1296,0,2020-01-29,0,0,Luxembourg
1172,Monaco,Monaco,43.7333,7.4167,0,2020-01-29,0,0,Monaco
1173,Qatar,Qatar,25.3548,51.1839,0,2020-01-29,0,0,Qatar
1174,"Snohomish County, WA",United States of America,48.033,-121.8339,0,2020-01-29,0,0,United States of America
1175,Ecuador,Ecuador,-1.8312,-78.1834,0,2020-01-29,0,0,Ecuador
1176,Azerbaijan,Azerbaijan,40.1431,47.5769,0,2020-01-29,0,0,Azerbaijan
1177,Czech Republic,Czech Republic,49.8175,15.472999999999999,0,2020-01-29,0,0,Czech Republic
1178,Armenia,Armenia,40.0691,45.0382,0,2020-01-29,0,0,Armenia
1179,Dominican Republic,Dominican Republic,18.7357,-70.1627,0,2020-01-29,0,0,Dominican Republic
1180,"Providence, RI",United States of America,41.824,-71.4128,0,2020-01-29,0,0,United States of America
1181,Indonesia,Indonesia,-0.7893,113.9213,0,2020-01-29,0,0,Indonesia
1182,Portugal,Portugal,39.3999,-8.2245,0,2020-01-29,0,0,Portugal
1183,Andorra,Andorra,42.5063,1.5218,0,2020-01-29,0,0,Andorra
1184,Tasmania,Australia,-41.4545,145.9707,0,2020-01-29,0,0,Australia
1185,Latvia,Latvia,56.8796,24.6032,0,2020-01-29,0,0,Latvia
1186,Morocco,Morocco,31.7917,-7.0926,0,2020-01-29,0,0,Morocco
1187,Saudi Arabia,Saudi Arabia,24.0,45.0,0,2020-01-29,0,0,Saudi Arabia
1188,Senegal,Senegal,14.4974,-14.4524,0,2020-01-29,0,0,Senegal
1189,"Grafton County, NH",United States of America,43.9088,-71.82600000000001,0,2020-01-29,0,0,United States of America
1190,"Hillsborough, FL",United States of America,27.9904,-82.3018,0,2020-01-29,0,0,United States of America
1191,"New York City, NY",United States of America,40.7128,-74.006,0,2020-01-29,0,0,United States of America
1192,"Placer County, CA",United States of America,39.0916,-120.8039,0,2020-01-29,0,0,United States of America
1193,"San Mateo, CA",United States of America,37.563,-122.3255,0,2020-01-29,0,0,United States of America
1194,"Sarasota, FL",United States of America,27.3364,-82.5307,0,2020-01-29,0,0,United States of America
1195,"Sonoma County, CA",United States of America,38.578,-122.9888,0,2020-01-29,0,0,United States of America
1196,"Umatilla, OR",United States of America,45.775,-118.7606,0,2020-01-29,0,0,United States of America
1197,"Fulton County, GA",United States of America,33.8034,-84.3963,0,2020-01-29,0,0,United States of America
1198,"Washington County, OR",United States of America,45.547,-123.1386,0,2020-01-29,0,0,United States of America
1199,Argentina,Argentina,-38.4161,-63.6167,0,2020-01-29,0,0,Argentina
1200,Chile,Chile,-35.6751,-71.543,0,2020-01-29,0,0,Chile
1201,Jordan,Jordan,31.24,36.51,0,2020-01-29,0,0,Jordan
1202," Norfolk County, MA",United States of America,42.1767,-71.1449,0,2020-01-29,0,0,United States of America
1203,"Berkeley, CA",United States of America,37.8715,-122.273,0,2020-01-29,0,0,United States of America
1204,"Maricopa County, AZ",United States of America,33.2918,-112.4291,0,2020-01-29,0,0,United States of America
1205,"Wake County, NC",United States of America,35.8032,-78.5661,0,2020-01-29,0,0,United States of America
1206,"Westchester County, NY",United States of America,41.122,-73.7949,0,2020-01-29,0,0,United States of America
1207,Ukraine,Ukraine,48.3794,31.1656,0,2020-01-29,0,0,Ukraine
1208,Anhui,China,31.8257,117.2264,200,2020-01-30,2,0,China
1209,Beijing,China,40.1824,116.4142,114,2020-01-30,4,1,China
1210,Chongqing,China,30.0572,107.874,182,2020-01-30,1,0,China
1211,Fujian,China,26.0789,117.9874,101,2020-01-30,0,0,China
1212,Gansu,China,36.0611,103.8343,26,2020-01-30,0,0,China
1213,Guangdong,China,23.3417,113.4244,354,2020-01-30,10,0,China
1214,Guangxi,China,23.8298,108.7881,78,2020-01-30,2,0,China
1215,Guizhou,China,26.8154,106.8748,12,2020-01-30,1,0,China
1216,Hainan,China,19.1959,109.7453,46,2020-01-30,1,1,China
1217,Hebei,China,38.0428,114.5149,65,2020-01-30,0,1,China
1218,Heilongjiang,China,47.861999999999995,127.7615,44,2020-01-30,0,2,China
1219,Henan,China,33.882020000000004,113.61399999999999,278,2020-01-30,2,2,China
1220,Hubei,China,30.9756,112.2707,4903,2020-01-30,90,162,China
1221,Hunan,China,27.6104,111.7088,277,2020-01-30,2,0,China
1222,Inner Mongolia,China,44.0935,113.9448,19,2020-01-30,0,0,China
1223,Jiangsu,China,32.9711,119.455,129,2020-01-30,1,0,China
1224,Jiangxi,China,27.614,115.7221,162,2020-01-30,5,0,China
1225,Jilin,China,43.6661,126.1923,14,2020-01-30,1,0,China
1226,Liaoning,China,41.2956,122.6085,41,2020-01-30,1,0,China
1227,Ningxia,China,37.2692,106.1655,17,2020-01-30,0,0,China
1228,Qinghai,China,35.7452,95.9956,8,2020-01-30,0,0,China
1229,Shaanxi,China,35.1917,108.8701,63,2020-01-30,0,0,China
1230,Shandong,China,36.3427,118.1498,158,2020-01-30,1,0,China
1231,Shanghai,China,31.201999999999998,121.4491,112,2020-01-30,5,1,China
1232,Shanxi,China,37.5777,112.2922,35,2020-01-30,1,0,China
1233,Sichuan,China,30.6171,102.7103,142,2020-01-30,1,1,China
1234,Tianjin,China,39.3054,117.323,31,2020-01-30,0,0,China
1235,Tibet,China,31.6927,88.0924,1,2020-01-30,0,0,China
1236,Xinjiang,China,41.1129,85.2401,14,2020-01-30,0,0,China
1237,Yunnan,China,24.974,101.48700000000001,70,2020-01-30,0,0,China
1238,Zhejiang,China,29.1832,120.0934,428,2020-01-30,4,0,China
1239,Thailand,Thailand,15.0,101.0,14,2020-01-30,5,0,Thailand
1240,Japan,Japan,36.0,138.0,11,2020-01-30,1,0,Japan
1241,South Korea,South Korea,36.0,128.0,4,2020-01-30,0,0,South Korea
1242,Taiwan,Taiwan,23.7,121.0,9,2020-01-30,0,0,Taiwan
1243,"King County, WA",United States of America,47.6062,-122.3321,1,2020-01-30,0,0,United States of America
1244,"Cook County, IL",United States of America,41.7377,-87.6976,1,2020-01-30,0,0,United States of America
1245,"Tempe, AZ",United States of America,33.4255,-111.94,1,2020-01-30,0,0,United States of America
1246,Macau,Macau,22.1667,113.55,7,2020-01-30,0,0,Macau
1247,Hong Kong,Hong Kong,22.3,114.2,10,2020-01-30,0,0,Hong Kong
1248,Singapore,Singapore,1.2833,103.8333,10,2020-01-30,0,0,Singapore
1249,Vietnam,Vietnam,16.0,108.0,2,2020-01-30,0,0,Vietnam
1250,France,France,47.0,2.0,5,2020-01-30,0,0,France
1251,Nepal,Nepal,28.1667,84.25,1,2020-01-30,0,0,Nepal
1252,Malaysia,Malaysia,2.5,112.5,8,2020-01-30,0,0,Malaysia
1253,"Toronto, ON",Canada,43.6532,-79.3832,1,2020-01-30,0,0,Canada
1254,British Columbia,Canada,49.2827,-123.1207,1,2020-01-30,0,0,Canada
1255,"Orange, CA",United States of America,33.7879,-117.8531,1,2020-01-30,0,0,United States of America
1256,"Los Angeles, CA",United States of America,34.0522,-118.2437,1,2020-01-30,0,0,United States of America
1257,New South Wales,Australia,-33.8688,151.2093,4,2020-01-30,2,0,Australia
1258,Victoria,Australia,-37.8136,144.9631,2,2020-01-30,0,0,Australia
1259,Queensland,Australia,-28.0167,153.4,3,2020-01-30,0,0,Australia
1260,Cambodia,Cambodia,11.55,104.9167,1,2020-01-30,0,0,Cambodia
1261,Sri Lanka,Sri Lanka,7.0,81.0,1,2020-01-30,0,0,Sri Lanka
1262,Germany,Germany,51.0,9.0,4,2020-01-30,0,0,Germany
1263,Finland,Finland,64.0,26.0,1,2020-01-30,0,0,Finland
1264,United Arab Emirates,United Arab Emirates,24.0,54.0,4,2020-01-30,0,0,United Arab Emirates
1265,Philippines,Philippines,13.0,122.0,1,2020-01-30,0,0,Philippines
1266,India,India,21.0,78.0,1,2020-01-30,0,0,India
1267,"London, ON",Canada,42.9849,-81.2453,0,2020-01-30,0,0,Canada
1268,Italy,Italy,43.0,12.0,0,2020-01-30,0,0,Italy
1269,UK,UK,55.0,-3.0,0,2020-01-30,0,0,UK
1270,Russia,Russia,60.0,90.0,0,2020-01-30,0,0,Russia
1271,Sweden,Sweden,63.0,16.0,0,2020-01-30,0,0,Sweden
1272,"Santa Clara, CA",United States of America,37.3541,-121.9552,0,2020-01-30,0,0,United States of America
1273,Spain,Spain,40.0,-4.0,0,2020-01-30,0,0,Spain
1274,South Australia,Australia,-34.9285,138.6007,0,2020-01-30,0,0,Australia
1275,"Boston, MA",United States of America,42.3601,-71.0589,0,2020-01-30,0,0,United States of America
1276,"San Benito, CA",United States of America,36.5761,-120.9876,0,2020-01-30,0,0,United States of America
1277,Belgium,Belgium,50.8333,4.0,0,2020-01-30,0,0,Belgium
1278,"Madison, WI",United States of America,43.0731,-89.4012,0,2020-01-30,0,0,United States of America
1279,Diamond Princess cruise ship,Others,35.4437,139.638,0,2020-01-30,0,0,Others
1280,"San Diego County, CA",United States of America,32.7157,-117.1611,0,2020-01-30,0,0,United States of America
1281,"San Antonio, TX",United States of America,29.4241,-98.4936,0,2020-01-30,0,0,United States of America
1282,Egypt,Egypt,26.0,30.0,0,2020-01-30,0,0,Egypt
1283,Iran,Iran,32.0,53.0,0,2020-01-30,0,0,Iran
1284,"Omaha, NE (From Diamond Princess)",United States of America,41.2545,-95.9758,0,2020-01-30,0,0,United States of America
1285,"Travis, CA (From Diamond Princess)",United States of America,38.2721,-121.9399,0,2020-01-30,0,0,United States of America
1286,From Diamond Princess,Australia,35.4437,139.638,0,2020-01-30,0,0,Australia
1287,"Lackland, TX (From Diamond Princess)",United States of America,29.3829,-98.6134,0,2020-01-30,0,0,United States of America
1288,Lebanon,Lebanon,33.8547,35.8623,0,2020-01-30,0,0,Lebanon
1289,"Humboldt County, CA",United States of America,40.745,-123.8695,0,2020-01-30,0,0,United States of America
1290,"Sacramento County, CA",United States of America,38.4747,-121.3542,0,2020-01-30,0,0,United States of America
1291,Iraq,Iraq,33.0,44.0,0,2020-01-30,0,0,Iraq
1292,Unassigned Location (From Diamond Princess),United States of America,35.4437,139.638,0,2020-01-30,0,0,United States of America
1293,Oman,Oman,21.0,57.0,0,2020-01-30,0,0,Oman
1294,Afghanistan,Afghanistan,33.0,65.0,0,2020-01-30,0,0,Afghanistan
1295,Bahrain,Bahrain,26.0275,50.55,0,2020-01-30,0,0,Bahrain
1296,Kuwait,Kuwait,29.5,47.75,0,2020-01-30,0,0,Kuwait
1297,Algeria,Algeria,28.0339,1.6596,0,2020-01-30,0,0,Algeria
1298,Croatia,Croatia,45.1,15.2,0,2020-01-30,0,0,Croatia
1299,Switzerland,Switzerland,46.8182,8.2275,0,2020-01-30,0,0,Switzerland
1300,Austria,Austria,47.5162,14.5501,0,2020-01-30,0,0,Austria
1301,Israel,Israel,31.0,35.0,0,2020-01-30,0,0,Israel
1302,Pakistan,Pakistan,30.3753,69.3451,0,2020-01-30,0,0,Pakistan
1303,Brazil,Brazil,-14.235,-51.9253,0,2020-01-30,0,0,Brazil
1304,Georgia,Georgia,42.3154,43.3569,0,2020-01-30,0,0,Georgia
1305,Greece,Greece,39.0742,21.8243,0,2020-01-30,0,0,Greece
1306,North Macedonia,North Macedonia,41.6086,21.7453,0,2020-01-30,0,0,North Macedonia
1307,Norway,Norway,60.472,8.4689,0,2020-01-30,0,0,Norway
1308,Romania,Romania,45.9432,24.9668,0,2020-01-30,0,0,Romania
1309,Denmark,Denmark,56.2639,9.5018,0,2020-01-30,0,0,Denmark
1310,Estonia,Estonia,58.5953,25.0136,0,2020-01-30,0,0,Estonia
1311,Netherlands,Netherlands,52.1326,5.2913,0,2020-01-30,0,0,Netherlands
1312,San Marino,San Marino,43.9424,12.4578,0,2020-01-30,0,0,San Marino
1313,Belarus,Belarus,53.7098,27.9534,0,2020-01-30,0,0,Belarus
1314," Montreal, QC",Canada,45.5017,-73.5673,0,2020-01-30,0,0,Canada
1315,Iceland,Iceland,64.9631,-19.0208,0,2020-01-30,0,0,Iceland
1316,Lithuania,Lithuania,55.1694,23.8813,0,2020-01-30,0,0,Lithuania
1317,Mexico,Mexico,23.6345,-102.5528,0,2020-01-30,0,0,Mexico
1318,New Zealand,New Zealand,-40.9006,174.886,0,2020-01-30,0,0,New Zealand
1319,Nigeria,Nigeria,9.082,8.6753,0,2020-01-30,0,0,Nigeria
1320,Western Australia,Australia,-31.9505,115.8605,0,2020-01-30,0,0,Australia
1321,Ireland,Ireland,53.1424,-7.6921,0,2020-01-30,0,0,Ireland
1322,Luxembourg,Luxembourg,49.8153,6.1296,0,2020-01-30,0,0,Luxembourg
1323,Monaco,Monaco,43.7333,7.4167,0,2020-01-30,0,0,Monaco
1324,Qatar,Qatar,25.3548,51.1839,0,2020-01-30,0,0,Qatar
1325,"Snohomish County, WA",United States of America,48.033,-121.8339,0,2020-01-30,0,0,United States of America
1326,Ecuador,Ecuador,-1.8312,-78.1834,0,2020-01-30,0,0,Ecuador
1327,Azerbaijan,Azerbaijan,40.1431,47.5769,0,2020-01-30,0,0,Azerbaijan
1328,Czech Republic,Czech Republic,49.8175,15.472999999999999,0,2020-01-30,0,0,Czech Republic
1329,Armenia,Armenia,40.0691,45.0382,0,2020-01-30,0,0,Armenia
1330,Dominican Republic,Dominican Republic,18.7357,-70.1627,0,2020-01-30,0,0,Dominican Republic
1331,"Providence, RI",United States of America,41.824,-71.4128,0,2020-01-30,0,0,United States of America
1332,Indonesia,Indonesia,-0.7893,113.9213,0,2020-01-30,0,0,Indonesia
1333,Portugal,Portugal,39.3999,-8.2245,0,2020-01-30,0,0,Portugal
1334,Andorra,Andorra,42.5063,1.5218,0,2020-01-30,0,0,Andorra
1335,Tasmania,Australia,-41.4545,145.9707,0,2020-01-30,0,0,Australia
1336,Latvia,Latvia,56.8796,24.6032,0,2020-01-30,0,0,Latvia
1337,Morocco,Morocco,31.7917,-7.0926,0,2020-01-30,0,0,Morocco
1338,Saudi Arabia,Saudi Arabia,24.0,45.0,0,2020-01-30,0,0,Saudi Arabia
1339,Senegal,Senegal,14.4974,-14.4524,0,2020-01-30,0,0,Senegal
1340,"Grafton County, NH",United States of America,43.9088,-71.82600000000001,0,2020-01-30,0,0,United States of America
1341,"Hillsborough, FL",United States of America,27.9904,-82.3018,0,2020-01-30,0,0,United States of America
1342,"New York City, NY",United States of America,40.7128,-74.006,0,2020-01-30,0,0,United States of America
1343,"Placer County, CA",United States of America,39.0916,-120.8039,0,2020-01-30,0,0,United States of America
1344,"San Mateo, CA",United States of America,37.563,-122.3255,0,2020-01-30,0,0,United States of America
1345,"Sarasota, FL",United States of America,27.3364,-82.5307,0,2020-01-30,0,0,United States of America
1346,"Sonoma County, CA",United States of America,38.578,-122.9888,0,2020-01-30,0,0,United States of America
1347,"Umatilla, OR",United States of America,45.775,-118.7606,0,2020-01-30,0,0,United States of America
1348,"Fulton County, GA",United States of America,33.8034,-84.3963,0,2020-01-30,0,0,United States of America
1349,"Washington County, OR",United States of America,45.547,-123.1386,0,2020-01-30,0,0,United States of America
1350,Argentina,Argentina,-38.4161,-63.6167,0,2020-01-30,0,0,Argentina
1351,Chile,Chile,-35.6751,-71.543,0,2020-01-30,0,0,Chile
1352,Jordan,Jordan,31.24,36.51,0,2020-01-30,0,0,Jordan
1353," Norfolk County, MA",United States of America,42.1767,-71.1449,0,2020-01-30,0,0,United States of America
1354,"Berkeley, CA",United States of America,37.8715,-122.273,0,2020-01-30,0,0,United States of America
1355,"Maricopa County, AZ",United States of America,33.2918,-112.4291,0,2020-01-30,0,0,United States of America
1356,"Wake County, NC",United States of America,35.8032,-78.5661,0,2020-01-30,0,0,United States of America
1357,"Westchester County, NY",United States of America,41.122,-73.7949,0,2020-01-30,0,0,United States of America
1358,Ukraine,Ukraine,48.3794,31.1656,0,2020-01-30,0,0,Ukraine
1359,Anhui,China,31.8257,117.2264,237,2020-01-31,3,0,China
1360,Beijing,China,40.1824,116.4142,139,2020-01-31,5,1,China
1361,Chongqing,China,30.0572,107.874,211,2020-01-31,1,0,China
1362,Fujian,China,26.0789,117.9874,120,2020-01-31,0,0,China
1363,Gansu,China,36.0611,103.8343,29,2020-01-31,0,0,China
1364,Guangdong,China,23.3417,113.4244,436,2020-01-31,11,0,China
1365,Guangxi,China,23.8298,108.7881,87,2020-01-31,2,0,China
1366,Guizhou,China,26.8154,106.8748,29,2020-01-31,2,0,China
1367,Hainan,China,19.1959,109.7453,52,2020-01-31,1,1,China
1368,Hebei,China,38.0428,114.5149,82,2020-01-31,0,1,China
1369,Heilongjiang,China,47.861999999999995,127.7615,59,2020-01-31,0,2,China
1370,Henan,China,33.882020000000004,113.61399999999999,352,2020-01-31,3,2,China
1371,Hubei,China,30.9756,112.2707,5806,2020-01-31,141,204,China
1372,Hunan,China,27.6104,111.7088,332,2020-01-31,2,0,China
1373,Inner Mongolia,China,44.0935,113.9448,20,2020-01-31,1,0,China
1374,Jiangsu,China,32.9711,119.455,168,2020-01-31,5,0,China
1375,Jiangxi,China,27.614,115.7221,240,2020-01-31,7,0,China
1376,Jilin,China,43.6661,126.1923,14,2020-01-31,1,0,China
