,american_name,country,lat,long,conf_count,date,cured_count,dead_count,country_2
0,Anhui,China,31.8257,117.2264,1,2020-01-22,0,0,China
1,Beijing,China,40.1824,116.4142,14,2020-01-22,0,0,China
2,Chongqing,China,30.0572,107.874,6,2020-01-22,0,0,China
3,Fujian,China,26.0789,117.9874,1,2020-01-22,0,0,China
4,Gansu,China,36.0611,103.8343,0,2020-01-22,0,0,China
5,Guangdong,China,23.3417,113.4244,26,2020-01-22,0,0,China
6,Guangxi,China,23.8298,108.7881,2,2020-01-22,0,0,China
7,Guizhou,China,26.8154,106.8748,1,2020-01-22,0,0,China
8,Hainan,China,19.1959,109.7453,4,2020-01-22,0,0,China
9,Hebei,China,38.0428,114.5149,1,2020-01-22,0,0,China
10,Heilongjiang,China,47.861999999999995,127.7615,0,2020-01-22,0,0,China
11,Henan,China,33.882020000000004,113.61399999999999,5,2020-01-22,0,0,China
12,Hubei,China,30.9756,112.2707,444,2020-01-22,28,17,China
13,Hunan,China,27.6104,111.7088,4,2020-01-22,0,0,China
14,Inner Mongolia,China,44.0935,113.9448,0,2020-01-22,0,0,China
15,Jiangsu,China,32.9711,119.455,1,2020-01-22,0,0,China
16,Jiangxi,China,27.614,115.7221,2,2020-01-22,0,0,China
17,Jilin,China,43.6661,126.1923,0,2020-01-22,0,0,China
18,Liaoning,China,41.2956,122.6085,2,2020-01-22,0,0,China
19,Ningxia,China,37.2692,106.1655,1,2020-01-22,0,0,China
20,Qinghai,China,35.7452,95.9956,0,2020-01-22,0,0,China
21,Shaanxi,China,35.1917,108.8701,0,2020-01-22,0,0,China
22,Shandong,China,36.3427,118.1498,2,2020-01-22,0,0,China
23,Shanghai,China,31.201999999999998,121.4491,9,2020-01-22,0,0,China
24,Shanxi,China,37.5777,112.2922,1,2020-01-22,0,0,China
25,Sichuan,China,30.6171,102.7103,5,2020-01-22,0,0,China
26,Tianjin,China,39.3054,117.323,4,2020-01-22,0,0,China
27,Tibet,China,31.6927,88.0924,0,2020-01-22,0,0,China
28,Xinjiang,China,41.1129,85.2401,0,2020-01-22,0,0,China
29,Yunnan,China,24.974,101.48700000000001,1,2020-01-22,0,0,China
30,Zhejiang,China,29.1832,120.0934,10,2020-01-22,0,0,China
31,Thailand,Thailand,15.0,101.0,2,2020-01-22,0,0,Thailand
32,Japan,Japan,36.0,138.0,2,2020-01-22,0,0,Japan
33,South Korea,South Korea,36.0,128.0,1,2020-01-22,0,0,South Korea
34,Taiwan,Taiwan,23.7,121.0,1,2020-01-22,0,0,Taiwan
35,"King County, WA",United States of America,47.6062,-122.3321,1,2020-01-22,0,0,United States of America
36,"Cook County, IL",United States of America,41.8781,-87.6298,0,2020-01-22,0,0,United States of America
37,"Tempe, AZ",United States of America,33.4255,-111.94,0,2020-01-22,0,0,United States of America
38,Macau,Macau,22.1667,113.55,1,2020-01-22,0,0,Macau
39,Hong Kong,Hong Kong,22.3,114.2,0,2020-01-22,0,0,Hong Kong
40,Singapore,Singapore,1.2833,103.8333,0,2020-01-22,0,0,Singapore
41,Vietnam,Vietnam,16.0,108.0,0,2020-01-22,0,0,Vietnam
42,France,France,47.0,2.0,0,2020-01-22,0,0,France
43,Nepal,Nepal,28.1667,84.25,0,2020-01-22,0,0,Nepal
44,Malaysia,Malaysia,2.5,112.5,0,2020-01-22,0,0,Malaysia
45,"Toronto, ON",Canada,43.6532,-79.3832,0,2020-01-22,0,0,Canada
46,British Columbia,Canada,49.2827,-123.1207,0,2020-01-22,0,0,Canada
47,"Orange, CA",United States of America,33.7879,-117.8531,0,2020-01-22,0,0,United States of America
48,"Los Angeles, CA",United States of America,34.0522,-118.2437,0,2020-01-22,0,0,United States of America
49,New South Wales,Australia,-33.8688,151.2093,0,2020-01-22,0,0,Australia
50,Victoria,Australia,-37.8136,144.9631,0,2020-01-22,0,0,Australia
51,Queensland,Australia,-28.0167,153.4,0,2020-01-22,0,0,Australia
52,Cambodia,Cambodia,11.55,104.9167,0,2020-01-22,0,0,Cambodia
53,Sri Lanka,Sri Lanka,7.0,81.0,0,2020-01-22,0,0,Sri Lanka
54,Germany,Germany,51.0,9.0,0,2020-01-22,0,0,Germany
55,Finland,Finland,64.0,26.0,0,2020-01-22,0,0,Finland
56,United Arab Emirates,United Arab Emirates,24.0,54.0,0,2020-01-22,0,0,United Arab Emirates
57,Philippines,Philippines,13.0,122.0,0,2020-01-22,0,0,Philippines
58,India,India,21.0,78.0,0,2020-01-22,0,0,India
59,"London, ON",Canada,42.9849,-81.2453,0,2020-01-22,0,0,Canada
60,Italy,Italy,43.0,12.0,0,2020-01-22,0,0,Italy
61,UK,UK,55.0,-3.0,0,2020-01-22,0,0,UK
62,Russia,Russia,60.0,90.0,0,2020-01-22,0,0,Russia
63,Sweden,Sweden,63.0,16.0,0,2020-01-22,0,0,Sweden
64,"Santa Clara, CA",United States of America,37.3541,-121.9552,0,2020-01-22,0,0,United States of America
65,Spain,Spain,40.0,-4.0,0,2020-01-22,0,0,Spain
66,South Australia,Australia,-34.9285,138.6007,0,2020-01-22,0,0,Australia
67,"Boston, MA",United States of America,42.3601,-71.0589,0,2020-01-22,0,0,United States of America
68,"San Benito, CA",United States of America,36.5761,-120.9876,0,2020-01-22,0,0,United States of America
69,Belgium,Belgium,50.8333,4.0,0,2020-01-22,0,0,Belgium
70,"Madison, WI",United States of America,43.0731,-89.4012,0,2020-01-22,0,0,United States of America
71,Diamond Princess cruise ship,Others,35.4437,139.638,0,2020-01-22,0,0,Others
72,"San Diego County, CA",United States of America,32.7157,-117.1611,0,2020-01-22,0,0,United States of America
73,"San Antonio, TX",United States of America,29.4241,-98.4936,0,2020-01-22,0,0,United States of America
74,Egypt,Egypt,26.0,30.0,0,2020-01-22,0,0,Egypt
75,Iran,Iran,32.0,53.0,0,2020-01-22,0,0,Iran
76,"Omaha, NE (From Diamond Princess)",United States of America,41.2545,-95.9758,0,2020-01-22,0,0,United States of America
77,"Travis, CA (From Diamond Princess)",United States of America,38.2721,-121.9399,0,2020-01-22,0,0,United States of America
78,From Diamond Princess,Australia,35.4437,139.638,0,2020-01-22,0,0,Australia
79,"Lackland, TX (From Diamond Princess)",United States of America,29.3829,-98.6134,0,2020-01-22,0,0,United States of America
80,Lebanon,Lebanon,33.8547,35.8623,0,2020-01-22,0,0,Lebanon
81,"Humboldt County, CA",United States of America,40.745,-123.8695,0,2020-01-22,0,0,United States of America
82,"Sacramento County, CA",United States of America,38.4747,-121.3542,0,2020-01-22,0,0,United States of America
83,Iraq,Iraq,33.0,44.0,0,2020-01-22,0,0,Iraq
84,Unassigned Location (From Diamond Princess),United States of America,35.4437,139.638,0,2020-01-22,0,0,United States of America
85,Oman,Oman,21.0,57.0,0,2020-01-22,0,0,Oman
86,Afghanistan,Afghanistan,33.0,65.0,0,2020-01-22,0,0,Afghanistan
87,Bahrain,Bahrain,26.0275,50.55,0,2020-01-22,0,0,Bahrain
88,Kuwait,Kuwait,29.5,47.75,0,2020-01-22,0,0,Kuwait
89,Algeria,Algeria,28.0339,1.6596,0,2020-01-22,0,0,Algeria
90,Croatia,Croatia,45.1,15.2,0,2020-01-22,0,0,Croatia
91,Switzerland,Switzerland,46.8182,8.2275,0,2020-01-22,0,0,Switzerland
92,Austria,Austria,47.5162,14.5501,0,2020-01-22,0,0,Austria
93,Israel,Israel,31.0,35.0,0,2020-01-22,0,0,Israel
94,Pakistan,Pakistan,30.3753,69.3451,0,2020-01-22,0,0,Pakistan
95,Brazil,Brazil,-14.235,-51.9253,0,2020-01-22,0,0,Brazil
96,Georgia,Georgia,42.3154,43.3569,0,2020-01-22,0,0,Georgia
97,Greece,Greece,39.0742,21.8243,0,2020-01-22,0,0,Greece
98,North Macedonia,North Macedonia,41.6086,21.7453,0,2020-01-22,0,0,North Macedonia
99,Norway,Norway,60.472,8.4689,0,2020-01-22,0,0,Norway
100,Romania,Romania,45.9432,24.9668,0,2020-01-22,0,0,Romania
101,Denmark,Denmark,56.2639,9.5018,0,2020-01-22,0,0,Denmark
102,Estonia,Estonia,58.5953,25.0136,0,2020-01-22,0,0,Estonia
103,Netherlands,Netherlands,52.1326,5.2913,0,2020-01-22,0,0,Netherlands
104,San Marino,San Marino,43.9424,12.4578,0,2020-01-22,0,0,San Marino
105,Belarus,Belarus,53.7098,27.9534,0,2020-01-22,0,0,Belarus
106," Montreal, QC",Canada,45.5017,-73.5673,0,2020-01-22,0,0,Canada
107,Iceland,Iceland,64.9631,-19.0208,0,2020-01-22,0,0,Iceland
108,Lithuania,Lithuania,55.1694,23.8813,0,2020-01-22,0,0,Lithuania
109,Mexico,Mexico,23.6345,-102.5528,0,2020-01-22,0,0,Mexico
110,New Zealand,New Zealand,-40.9006,174.886,0,2020-01-22,0,0,New Zealand
111,Nigeria,Nigeria,9.082,8.6753,0,2020-01-22,0,0,Nigeria
112,Western Australia,Australia,-31.9505,115.8605,0,2020-01-22,0,0,Australia
113,Ireland,Ireland,53.1424,-7.6921,0,2020-01-22,0,0,Ireland
114,Luxembourg,Luxembourg,49.8153,6.1296,0,2020-01-22,0,0,Luxembourg
115,Monaco,Monaco,43.7333,7.4167,0,2020-01-22,0,0,Monaco
116,Qatar,Qatar,25.3548,51.1839,0,2020-01-22,0,0,Qatar
117,"Portland, OR",United States of America,45.5051,-122.675,0,2020-01-22,0,0,United States of America
118,"Snohomish County, WA",United States of America,48.033,-121.8339,0,2020-01-22,0,0,United States of America
119,Ecuador,Ecuador,-1.8312,-78.1834,0,2020-01-22,0,0,Ecuador
120,Azerbaijan,Azerbaijan,40.1431,47.5769,0,2020-01-22,0,0,Azerbaijan
121,Czech Republic,Czech Republic,49.8175,15.472999999999999,0,2020-01-22,0,0,Czech Republic
122,Armenia,Armenia,40.0691,45.0382,0,2020-01-22,0,0,Armenia
123,Dominican Republic,Dominican Republic,18.7357,-70.1627,0,2020-01-22,0,0,Dominican Republic
124,"Providence, RI",United States of America,41.824,-71.4128,0,2020-01-22,0,0,United States of America
125,"Cook County, IL",United States of America,41.7377,-87.6976,0,2020-01-22,0,0,United States of America
126,Indonesia,Indonesia,-0.7893,113.9213,0,2020-01-22,0,0,Indonesia
127,Portugal,Portugal,39.3999,-8.2245,0,2020-01-22,0,0,Portugal
128,Andorra,Andorra,42.5063,1.5218,0,2020-01-22,0,0,Andorra
129,Tasmania,Australia,-41.4545,145.9707,0,2020-01-22,0,0,Australia
130,Latvia,Latvia,56.8796,24.6032,0,2020-01-22,0,0,Latvia
131,Morocco,Morocco,31.7917,-7.0926,0,2020-01-22,0,0,Morocco
132,Saudi Arabia,Saudi Arabia,24.0,45.0,0,2020-01-22,0,0,Saudi Arabia
133,Senegal,Senegal,14.4974,-14.4524,0,2020-01-22,0,0,Senegal
134,"Grafton County, NH",United States of America,43.9088,-71.82600000000001,0,2020-01-22,0,0,United States of America
135,"Hillsborough, FL",United States of America,27.9904,-82.3018,0,2020-01-22,0,0,United States of America
136,"New York City, NY",United States of America,40.7128,-74.006,0,2020-01-22,0,0,United States of America
137,"Placer County, CA",United States of America,39.0916,-120.8039,0,2020-01-22,0,0,United States of America
138,"San Mateo, CA",United States of America,37.563,-122.3255,0,2020-01-22,0,0,United States of America
139,"Sarasota, FL",United States of America,27.3364,-82.5307,0,2020-01-22,0,0,United States of America
140,"Sonoma County, CA",United States of America,38.578,-122.9888,0,2020-01-22,0,0,United States of America
141,"Umatilla, OR",United States of America,45.775,-118.7606,0,2020-01-22,0,0,United States of America
142,Anhui,China,31.8257,117.2264,9,2020-01-23,0,0,China
143,Beijing,China,40.1824,116.4142,22,2020-01-23,0,0,China
144,Chongqing,China,30.0572,107.874,9,2020-01-23,0,0,China
145,Fujian,China,26.0789,117.9874,5,2020-01-23,0,0,China
146,Gansu,China,36.0611,103.8343,2,2020-01-23,0,0,China
147,Guangdong,China,23.3417,113.4244,32,2020-01-23,2,0,China
148,Guangxi,China,23.8298,108.7881,5,2020-01-23,0,0,China
149,Guizhou,China,26.8154,106.8748,3,2020-01-23,0,0,China
150,Hainan,China,19.1959,109.7453,5,2020-01-23,0,0,China
151,Hebei,China,38.0428,114.5149,1,2020-01-23,0,1,China
152,Heilongjiang,China,47.861999999999995,127.7615,2,2020-01-23,0,0,China
153,Henan,China,33.882020000000004,113.61399999999999,5,2020-01-23,0,0,China
154,Hubei,China,30.9756,112.2707,444,2020-01-23,28,17,China
155,Hunan,China,27.6104,111.7088,9,2020-01-23,0,0,China
156,Inner Mongolia,China,44.0935,113.9448,0,2020-01-23,0,0,China
157,Jiangsu,China,32.9711,119.455,5,2020-01-23,0,0,China
158,Jiangxi,China,27.614,115.7221,7,2020-01-23,0,0,China
159,Jilin,China,43.6661,126.1923,1,2020-01-23,0,0,China
160,Liaoning,China,41.2956,122.6085,3,2020-01-23,0,0,China
161,Ningxia,China,37.2692,106.1655,1,2020-01-23,0,0,China
162,Qinghai,China,35.7452,95.9956,0,2020-01-23,0,0,China
163,Shaanxi,China,35.1917,108.8701,3,2020-01-23,0,0,China
164,Shandong,China,36.3427,118.1498,6,2020-01-23,0,0,China
165,Shanghai,China,31.201999999999998,121.4491,16,2020-01-23,0,0,China
166,Shanxi,China,37.5777,112.2922,1,2020-01-23,0,0,China
167,Sichuan,China,30.6171,102.7103,8,2020-01-23,0,0,China
168,Tianjin,China,39.3054,117.323,4,2020-01-23,0,0,China
169,Tibet,China,31.6927,88.0924,0,2020-01-23,0,0,China
170,Xinjiang,China,41.1129,85.2401,2,2020-01-23,0,0,China
171,Yunnan,China,24.974,101.48700000000001,2,2020-01-23,0,0,China
172,Zhejiang,China,29.1832,120.0934,27,2020-01-23,0,0,China
173,Thailand,Thailand,15.0,101.0,3,2020-01-23,0,0,Thailand
174,Japan,Japan,36.0,138.0,1,2020-01-23,0,0,Japan
175,South Korea,South Korea,36.0,128.0,1,2020-01-23,0,0,South Korea
176,Taiwan,Taiwan,23.7,121.0,1,2020-01-23,0,0,Taiwan
177,"King County, WA",United States of America,47.6062,-122.3321,1,2020-01-23,0,0,United States of America
178,"Cook County, IL",United States of America,41.8781,-87.6298,0,2020-01-23,0,0,United States of America
179,"Tempe, AZ",United States of America,33.4255,-111.94,0,2020-01-23,0,0,United States of America
180,Macau,Macau,22.1667,113.55,2,2020-01-23,0,0,Macau
181,Hong Kong,Hong Kong,22.3,114.2,2,2020-01-23,0,0,Hong Kong
182,Singapore,Singapore,1.2833,103.8333,1,2020-01-23,0,0,Singapore
183,Vietnam,Vietnam,16.0,108.0,2,2020-01-23,0,0,Vietnam
184,France,France,47.0,2.0,0,2020-01-23,0,0,France
185,Nepal,Nepal,28.1667,84.25,0,2020-01-23,0,0,Nepal
186,Malaysia,Malaysia,2.5,112.5,0,2020-01-23,0,0,Malaysia
187,"Toronto, ON",Canada,43.6532,-79.3832,0,2020-01-23,0,0,Canada
188,British Columbia,Canada,49.2827,-123.1207,0,2020-01-23,0,0,Canada
189,"Orange, CA",United States of America,33.7879,-117.8531,0,2020-01-23,0,0,United States of America
190,"Los Angeles, CA",United States of America,34.0522,-118.2437,0,2020-01-23,0,0,United States of America
191,New South Wales,Australia,-33.8688,151.2093,0,2020-01-23,0,0,Australia
192,Victoria,Australia,-37.8136,144.9631,0,2020-01-23,0,0,Australia
193,Queensland,Australia,-28.0167,153.4,0,2020-01-23,0,0,Australia
194,Cambodia,Cambodia,11.55,104.9167,0,2020-01-23,0,0,Cambodia
195,Sri Lanka,Sri Lanka,7.0,81.0,0,2020-01-23,0,0,Sri Lanka
196,Germany,Germany,51.0,9.0,0,2020-01-23,0,0,Germany
197,Finland,Finland,64.0,26.0,0,2020-01-23,0,0,Finland
198,United Arab Emirates,United Arab Emirates,24.0,54.0,0,2020-01-23,0,0,United Arab Emirates
199,Philippines,Philippines,13.0,122.0,0,2020-01-23,0,0,Philippines
200,India,India,21.0,78.0,0,2020-01-23,0,0,India
201,"London, ON",Canada,42.9849,-81.2453,0,2020-01-23,0,0,Canada
202,Italy,Italy,43.0,12.0,0,2020-01-23,0,0,Italy
203,UK,UK,55.0,-3.0,0,2020-01-23,0,0,UK
204,Russia,Russia,60.0,90.0,0,2020-01-23,0,0,Russia
205,Sweden,Sweden,63.0,16.0,0,2020-01-23,0,0,Sweden
206,"Santa Clara, CA",United States of America,37.3541,-121.9552,0,2020-01-23,0,0,United States of America
207,Spain,Spain,40.0,-4.0,0,2020-01-23,0,0,Spain
208,South Australia,Australia,-34.9285,138.6007,0,2020-01-23,0,0,Australia
209,"Boston, MA",United States of America,42.3601,-71.0589,0,2020-01-23,0,0,United States of America
210,"San Benito, CA",United States of America,36.5761,-120.9876,0,2020-01-23,0,0,United States of America
211,Belgium,Belgium,50.8333,4.0,0,2020-01-23,0,0,Belgium
212,"Madison, WI",United States of America,43.0731,-89.4012,0,2020-01-23,0,0,United States of America
213,Diamond Princess cruise ship,Others,35.4437,139.638,0,2020-01-23,0,0,Others
214,"San Diego County, CA",United States of America,32.7157,-117.1611,0,2020-01-23,0,0,United States of America
215,"San Antonio, TX",United States of America,29.4241,-98.4936,0,2020-01-23,0,0,United States of America
216,Egypt,Egypt,26.0,30.0,0,2020-01-23,0,0,Egypt
217,Iran,Iran,32.0,53.0,0,2020-01-23,0,0,Iran
218,"Omaha, NE (From Diamond Princess)",United States of America,41.2545,-95.9758,0,2020-01-23,0,0,United States of America
219,"Travis, CA (From Diamond Princess)",United States of America,38.2721,-121.9399,0,2020-01-23,0,0,United States of America
220,From Diamond Princess,Australia,35.4437,139.638,0,2020-01-23,0,0,Australia
221,"Lackland, TX (From Diamond Princess)",United States of America,29.3829,-98.6134,0,2020-01-23,0,0,United States of America
222,Lebanon,Lebanon,33.8547,35.8623,0,2020-01-23,0,0,Lebanon
223,"Humboldt County, CA",United States of America,40.745,-123.8695,0,2020-01-23,0,0,United States of America
224,"Sacramento County, CA",United States of America,38.4747,-121.3542,0,2020-01-23,0,0,United States of America
225,Iraq,Iraq,33.0,44.0,0,2020-01-23,0,0,Iraq
226,Unassigned Location (From Diamond Princess),United States of America,35.4437,139.638,0,2020-01-23,0,0,United States of America
227,Oman,Oman,21.0,57.0,0,2020-01-23,0,0,Oman
228,Afghanistan,Afghanistan,33.0,65.0,0,2020-01-23,0,0,Afghanistan
229,Bahrain,Bahrain,26.0275,50.55,0,2020-01-23,0,0,Bahrain
230,Kuwait,Kuwait,29.5,47.75,0,2020-01-23,0,0,Kuwait
231,Algeria,Algeria,28.0339,1.6596,0,2020-01-23,0,0,Algeria
232,Croatia,Croatia,45.1,15.2,0,2020-01-23,0,0,Croatia
233,Switzerland,Switzerland,46.8182,8.2275,0,2020-01-23,0,0,Switzerland
234,Austria,Austria,47.5162,14.5501,0,2020-01-23,0,0,Austria
235,Israel,Israel,31.0,35.0,0,2020-01-23,0,0,Israel
236,Pakistan,Pakistan,30.3753,69.3451,0,2020-01-23,0,0,Pakistan
237,Brazil,Brazil,-14.235,-51.9253,0,2020-01-23,0,0,Brazil
238,Georgia,Georgia,42.3154,43.3569,0,2020-01-23,0,0,Georgia
239,Greece,Greece,39.0742,21.8243,0,2020-01-23,0,0,Greece
240,North Macedonia,North Macedonia,41.6086,21.7453,0,2020-01-23,0,0,North Macedonia
241,Norway,Norway,60.472,8.4689,0,2020-01-23,0,0,Norway
242,Romania,Romania,45.9432,24.9668,0,2020-01-23,0,0,Romania
243,Denmark,Denmark,56.2639,9.5018,0,2020-01-23,0,0,Denmark
244,Estonia,Estonia,58.5953,25.0136,0,2020-01-23,0,0,Estonia
245,Netherlands,Netherlands,52.1326,5.2913,0,2020-01-23,0,0,Netherlands
246,San Marino,San Marino,43.9424,12.4578,0,2020-01-23,0,0,San Marino
247,Belarus,Belarus,53.7098,27.9534,0,2020-01-23,0,0,Belarus
248," Montreal, QC",Canada,45.5017,-73.5673,0,2020-01-23,0,0,Canada
249,Iceland,Iceland,64.9631,-19.0208,0,2020-01-23,0,0,Iceland
250,Lithuania,Lithuania,55.1694,23.8813,0,2020-01-23,0,0,Lithuania
251,Mexico,Mexico,23.6345,-102.5528,0,2020-01-23,0,0,Mexico
252,New Zealand,New Zealand,-40.9006,174.886,0,2020-01-23,0,0,New Zealand
253,Nigeria,Nigeria,9.082,8.6753,0,2020-01-23,0,0,Nigeria
254,Western Australia,Australia,-31.9505,115.8605,0,2020-01-23,0,0,Australia
255,Ireland,Ireland,53.1424,-7.6921,0,2020-01-23,0,0,Ireland
256,Luxembourg,Luxembourg,49.8153,6.1296,0,2020-01-23,0,0,Luxembourg
257,Monaco,Monaco,43.7333,7.4167,0,2020-01-23,0,0,Monaco
258,Qatar,Qatar,25.3548,51.1839,0,2020-01-23,0,0,Qatar
259,"Portland, OR",United States of America,45.5051,-122.675,0,2020-01-23,0,0,United States of America
260,"Snohomish County, WA",United States of America,48.033,-121.8339,0,2020-01-23,0,0,United States of America
261,Ecuador,Ecuador,-1.8312,-78.1834,0,2020-01-23,0,0,Ecuador
262,Azerbaijan,Azerbaijan,40.1431,47.5769,0,2020-01-23,0,0,Azerbaijan
263,Czech Republic,Czech Republic,49.8175,15.472999999999999,0,2020-01-23,0,0,Czech Republic
264,Armenia,Armenia,40.0691,45.0382,0,2020-01-23,0,0,Armenia
265,Dominican Republic,Dominican Republic,18.7357,-70.1627,0,2020-01-23,0,0,Dominican Republic
266,"Providence, RI",United States of America,41.824,-71.4128,0,2020-01-23,0,0,United States of America
267,"Cook County, IL",United States of America,41.7377,-87.6976,0,2020-01-23,0,0,United States of America
268,Indonesia,Indonesia,-0.7893,113.9213,0,2020-01-23,0,0,Indonesia
269,Portugal,Portugal,39.3999,-8.2245,0,2020-01-23,0,0,Portugal
270,Andorra,Andorra,42.5063,1.5218,0,2020-01-23,0,0,Andorra
271,Tasmania,Australia,-41.4545,145.9707,0,2020-01-23,0,0,Australia
272,Latvia,Latvia,56.8796,24.6032,0,2020-01-23,0,0,Latvia
273,Morocco,Morocco,31.7917,-7.0926,0,2020-01-23,0,0,Morocco
274,Saudi Arabia,Saudi Arabia,24.0,45.0,0,2020-01-23,0,0,Saudi Arabia
275,Senegal,Senegal,14.4974,-14.4524,0,2020-01-23,0,0,Senegal
276,"Grafton County, NH",United States of America,43.9088,-71.82600000000001,0,2020-01-23,0,0,United States of America
277,"Hillsborough, FL",United States of America,27.9904,-82.3018,0,2020-01-23,0,0,United States of America
278,"New York City, NY",United States of America,40.7128,-74.006,0,2020-01-23,0,0,United States of America
279,"Placer County, CA",United States of America,39.0916,-120.8039,0,2020-01-23,0,0,United States of America
280,"San Mateo, CA",United States of America,37.563,-122.3255,0,2020-01-23,0,0,United States of America
281,"Sarasota, FL",United States of America,27.3364,-82.5307,0,2020-01-23,0,0,United States of America
282,"Sonoma County, CA",United States of America,38.578,-122.9888,0,2020-01-23,0,0,United States of America
283,"Umatilla, OR",United States of America,45.775,-118.7606,0,2020-01-23,0,0,United States of America
284,Anhui,China,31.8257,117.2264,15,2020-01-24,0,0,China
285,Beijing,China,40.1824,116.4142,36,2020-01-24,1,0,China
286,Chongqing,China,30.0572,107.874,27,2020-01-24,0,0,China
287,Fujian,China,26.0789,117.9874,10,2020-01-24,0,0,China
288,Gansu,China,36.0611,103.8343,2,2020-01-24,0,0,China
289,Guangdong,China,23.3417,113.4244,53,2020-01-24,2,0,China
290,Guangxi,China,23.8298,108.7881,23,2020-01-24,0,0,China
291,Guizhou,China,26.8154,106.8748,3,2020-01-24,0,0,China
292,Hainan,China,19.1959,109.7453,8,2020-01-24,0,0,China
293,Hebei,China,38.0428,114.5149,2,2020-01-24,0,1,China
294,Heilongjiang,China,47.861999999999995,127.7615,4,2020-01-24,0,1,China
295,Henan,China,33.882020000000004,113.61399999999999,9,2020-01-24,0,0,China
296,Hubei,China,30.9756,112.2707,549,2020-01-24,31,24,China
297,Hunan,China,27.6104,111.7088,24,2020-01-24,0,0,China
298,Inner Mongolia,China,44.0935,113.9448,1,2020-01-24,0,0,China
299,Jiangsu,China,32.9711,119.455,9,2020-01-24,0,0,China
300,Jiangxi,China,27.614,115.7221,18,2020-01-24,0,0,China
301,Jilin,China,43.6661,126.1923,3,2020-01-24,0,0,China
302,Liaoning,China,41.2956,122.6085,4,2020-01-24,0,0,China
303,Ningxia,China,37.2692,106.1655,2,2020-01-24,0,0,China
304,Qinghai,China,35.7452,95.9956,0,2020-01-24,0,0,China
305,Shaanxi,China,35.1917,108.8701,5,2020-01-24,0,0,China
306,Shandong,China,36.3427,118.1498,15,2020-01-24,0,0,China
307,Shanghai,China,31.201999999999998,121.4491,20,2020-01-24,1,0,China
308,Shanxi,China,37.5777,112.2922,1,2020-01-24,0,0,China
309,Sichuan,China,30.6171,102.7103,15,2020-01-24,0,0,China
310,Tianjin,China,39.3054,117.323,8,2020-01-24,0,0,China
311,Tibet,China,31.6927,88.0924,0,2020-01-24,0,0,China
312,Xinjiang,China,41.1129,85.2401,2,2020-01-24,0,0,China
313,Yunnan,China,24.974,101.48700000000001,5,2020-01-24,0,0,China
314,Zhejiang,China,29.1832,120.0934,43,2020-01-24,1,0,China
315,Thailand,Thailand,15.0,101.0,5,2020-01-24,0,0,Thailand
316,Japan,Japan,36.0,138.0,2,2020-01-24,0,0,Japan
317,South Korea,South Korea,36.0,128.0,2,2020-01-24,0,0,South Korea
318,Taiwan,Taiwan,23.7,121.0,3,2020-01-24,0,0,Taiwan
319,"King County, WA",United States of America,47.6062,-122.3321,1,2020-01-24,0,0,United States of America
320,"Cook County, IL",United States of America,41.8781,-87.6298,1,2020-01-24,0,0,United States of America
321,"Tempe, AZ",United States of America,33.4255,-111.94,0,2020-01-24,0,0,United States of America
322,Macau,Macau,22.1667,113.55,2,2020-01-24,0,0,Macau
323,Hong Kong,Hong Kong,22.3,114.2,2,2020-01-24,0,0,Hong Kong
324,Singapore,Singapore,1.2833,103.8333,3,2020-01-24,0,0,Singapore
325,Vietnam,Vietnam,16.0,108.0,2,2020-01-24,0,0,Vietnam
326,France,France,47.0,2.0,2,2020-01-24,0,0,France
327,Nepal,Nepal,28.1667,84.25,0,2020-01-24,0,0,Nepal
328,Malaysia,Malaysia,2.5,112.5,0,2020-01-24,0,0,Malaysia
329,"Toronto, ON",Canada,43.6532,-79.3832,0,2020-01-24,0,0,Canada
330,British Columbia,Canada,49.2827,-123.1207,0,2020-01-24,0,0,Canada
331,"Orange, CA",United States of America,33.7879,-117.8531,0,2020-01-24,0,0,United States of America
332,"Los Angeles, CA",United States of America,34.0522,-118.2437,0,2020-01-24,0,0,United States of America
333,New South Wales,Australia,-33.8688,151.2093,0,2020-01-24,0,0,Australia
334,Victoria,Australia,-37.8136,144.9631,0,2020-01-24,0,0,Australia
335,Queensland,Australia,-28.0167,153.4,0,2020-01-24,0,0,Australia
336,Cambodia,Cambodia,11.55,104.9167,0,2020-01-24,0,0,Cambodia
337,Sri Lanka,Sri Lanka,7.0,81.0,0,2020-01-24,0,0,Sri Lanka
338,Germany,Germany,51.0,9.0,0,2020-01-24,0,0,Germany
339,Finland,Finland,64.0,26.0,0,2020-01-24,0,0,Finland
340,United Arab Emirates,United Arab Emirates,24.0,54.0,0,2020-01-24,0,0,United Arab Emirates
341,Philippines,Philippines,13.0,122.0,0,2020-01-24,0,0,Philippines
342,India,India,21.0,78.0,0,2020-01-24,0,0,India
343,"London, ON",Canada,42.9849,-81.2453,0,2020-01-24,0,0,Canada
344,Italy,Italy,43.0,12.0,0,2020-01-24,0,0,Italy
345,UK,UK,55.0,-3.0,0,2020-01-24,0,0,UK
346,Russia,Russia,60.0,90.0,0,2020-01-24,0,0,Russia
347,Sweden,Sweden,63.0,16.0,0,2020-01-24,0,0,Sweden
348,"Santa Clara, CA",United States of America,37.3541,-121.9552,0,2020-01-24,0,0,United States of America
349,Spain,Spain,40.0,-4.0,0,2020-01-24,0,0,Spain
350,South Australia,Australia,-34.9285,138.6007,0,2020-01-24,0,0,Australia
351,"Boston, MA",United States of America,42.3601,-71.0589,0,2020-01-24,0,0,United States of America
352,"San Benito, CA",United States of America,36.5761,-120.9876,0,2020-01-24,0,0,United States of America
353,Belgium,Belgium,50.8333,4.0,0,2020-01-24,0,0,Belgium
354,"Madison, WI",United States of America,43.0731,-89.4012,0,2020-01-24,0,0,United States of America
355,Diamond Princess cruise ship,Others,35.4437,139.638,0,2020-01-24,0,0,Others
356,"San Diego County, CA",United States of America,32.7157,-117.1611,0,2020-01-24,0,0,United States of America
357,"San Antonio, TX",United States of America,29.4241,-98.4936,0,2020-01-24,0,0,United States of America
358,Egypt,Egypt,26.0,30.0,0,2020-01-24,0,0,Egypt
359,Iran,Iran,32.0,53.0,0,2020-01-24,0,0,Iran
360,"Omaha, NE (From Diamond Princess)",United States of America,41.2545,-95.9758,0,2020-01-24,0,0,United States of America
361,"Travis, CA (From Diamond Princess)",United States of America,38.2721,-121.9399,0,2020-01-24,0,0,United States of America
362,From Diamond Princess,Australia,35.4437,139.638,0,2020-01-24,0,0,Australia
363,"Lackland, TX (From Diamond Princess)",United States of America,29.3829,-98.6134,0,2020-01-24,0,0,United States of America
364,Lebanon,Lebanon,33.8547,35.8623,0,2020-01-24,0,0,Lebanon
365,"Humboldt County, CA",United States of America,40.745,-123.8695,0,2020-01-24,0,0,United States of America
366,"Sacramento County, CA",United States of America,38.4747,-121.3542,0,2020-01-24,0,0,United States of America
367,Iraq,Iraq,33.0,44.0,0,2020-01-24,0,0,Iraq
368,Unassigned Location (From Diamond Princess),United States of America,35.4437,139.638,0,2020-01-24,0,0,United States of America
369,Oman,Oman,21.0,57.0,0,2020-01-24,0,0,Oman
370,Afghanistan,Afghanistan,33.0,65.0,0,2020-01-24,0,0,Afghanistan
371,Bahrain,Bahrain,26.0275,50.55,0,2020-01-24,0,0,Bahrain
372,Kuwait,Kuwait,29.5,47.75,0,2020-01-24,0,0,Kuwait
373,Algeria,Algeria,28.0339,1.6596,0,2020-01-24,0,0,Algeria
374,Croatia,Croatia,45.1,15.2,0,2020-01-24,0,0,Croatia
375,Switzerland,Switzerland,46.8182,8.2275,0,2020-01-24,0,0,Switzerland
376,Austria,Austria,47.5162,14.5501,0,2020-01-24,0,0,Austria
377,Israel,Israel,31.0,35.0,0,2020-01-24,0,0,Israel
378,Pakistan,Pakistan,30.3753,69.3451,0,2020-01-24,0,0,Pakistan
379,Brazil,Brazil,-14.235,-51.9253,0,2020-01-24,0,0,Brazil
380,Georgia,Georgia,42.3154,43.3569,0,2020-01-24,0,0,Georgia
381,Greece,Greece,39.0742,21.8243,0,2020-01-24,0,0,Greece
382,North Macedonia,North Macedonia,41.6086,21.7453,0,2020-01-24,0,0,North Macedonia
383,Norway,Norway,60.472,8.4689,0,2020-01-24,0,0,Norway
384,Romania,Romania,45.9432,24.9668,0,2020-01-24,0,0,Romania
385,Denmark,Denmark,56.2639,9.5018,0,2020-01-24,0,0,Denmark
386,Estonia,Estonia,58.5953,25.0136,0,2020-01-24,0,0,Estonia
387,Netherlands,Netherlands,52.1326,5.2913,0,2020-01-24,0,0,Netherlands
388,San Marino,San Marino,43.9424,12.4578,0,2020-01-24,0,0,San Marino
389,Belarus,Belarus,53.7098,27.9534,0,2020-01-24,0,0,Belarus
390," Montreal, QC",Canada,45.5017,-73.5673,0,2020-01-24,0,0,Canada
391,Iceland,Iceland,64.9631,-19.0208,0,2020-01-24,0,0,Iceland
392,Lithuania,Lithuania,55.1694,23.8813,0,2020-01-24,0,0,Lithuania
393,Mexico,Mexico,23.6345,-102.5528,0,2020-01-24,0,0,Mexico
394,New Zealand,New Zealand,-40.9006,174.886,0,2020-01-24,0,0,New Zealand
395,Nigeria,Nigeria,9.082,8.6753,0,2020-01-24,0,0,Nigeria
396,Western Australia,Australia,-31.9505,115.8605,0,2020-01-24,0,0,Australia
397,Ireland,Ireland,53.1424,-7.6921,0,2020-01-24,0,0,Ireland
398,Luxembourg,Luxembourg,49.8153,6.1296,0,2020-01-24,0,0,Luxembourg
399,Monaco,Monaco,43.7333,7.4167,0,2020-01-24,0,0,Monaco
400,Qatar,Qatar,25.3548,51.1839,0,2020-01-24,0,0,Qatar
401,"Portland, OR",United States of America,45.5051,-122.675,0,2020-01-24,0,0,United States of America
402,"Snohomish County, WA",United States of America,48.033,-121.8339,0,2020-01-24,0,0,United States of America
403,Ecuador,Ecuador,-1.8312,-78.1834,0,2020-01-24,0,0,Ecuador
404,Azerbaijan,Azerbaijan,40.1431,47.5769,0,2020-01-24,0,0,Azerbaijan
405,Czech Republic,Czech Republic,49.8175,15.472999999999999,0,2020-01-24,0,0,Czech Republic
406,Armenia,Armenia,40.0691,45.0382,0,2020-01-24,0,0,Armenia
407,Dominican Republic,Dominican Republic,18.7357,-70.1627,0,2020-01-24,0,0,Dominican Republic
408,"Providence, RI",United States of America,41.824,-71.4128,0,2020-01-24,0,0,United States of America
409,"Cook County, IL",United States of America,41.7377,-87.6976,0,2020-01-24,0,0,United States of America
410,Indonesia,Indonesia,-0.7893,113.9213,0,2020-01-24,0,0,Indonesia
411,Portugal,Portugal,39.3999,-8.2245,0,2020-01-24,0,0,Portugal
412,Andorra,Andorra,42.5063,1.5218,0,2020-01-24,0,0,Andorra
413,Tasmania,Australia,-41.4545,145.9707,0,2020-01-24,0,0,Australia
414,Latvia,Latvia,56.8796,24.6032,0,2020-01-24,0,0,Latvia
415,Morocco,Morocco,31.7917,-7.0926,0,2020-01-24,0,0,Morocco
416,Saudi Arabia,Saudi Arabia,24.0,45.0,0,2020-01-24,0,0,Saudi Arabia
417,Senegal,Senegal,14.4974,-14.4524,0,2020-01-24,0,0,Senegal
418,"Grafton County, NH",United States of America,43.9088,-71.82600000000001,0,2020-01-24,0,0,United States of America
419,"Hillsborough, FL",United States of America,27.9904,-82.3018,0,2020-01-24,0,0,United States of America
420,"New York City, NY",United States of America,40.7128,-74.006,0,2020-01-24,0,0,United States of America
421,"Placer County, CA",United States of America,39.0916,-120.8039,0,2020-01-24,0,0,United States of America
422,"San Mateo, CA",United States of America,37.563,-122.3255,0,2020-01-24,0,0,United States of America
423,"Sarasota, FL",United States of America,27.3364,-82.5307,0,2020-01-24,0,0,United States of America
424,"Sonoma County, CA",United States of America,38.578,-122.9888,0,2020-01-24,0,0,United States of America
425,"Umatilla, OR",United States of America,45.775,-118.7606,0,2020-01-24,0,0,United States of America
426,Anhui,China,31.8257,117.2264,39,2020-01-25,0,0,China
427,Beijing,China,40.1824,116.4142,41,2020-01-25,2,0,China
428,Chongqing,China,30.0572,107.874,57,2020-01-25,0,0,China
429,Fujian,China,26.0789,117.9874,18,2020-01-25,0,0,China
430,Gansu,China,36.0611,103.8343,4,2020-01-25,0,0,China
431,Guangdong,China,23.3417,113.4244,78,2020-01-25,2,0,China
432,Guangxi,China,23.8298,108.7881,23,2020-01-25,0,0,China
433,Guizhou,China,26.8154,106.8748,4,2020-01-25,0,0,China
434,Hainan,China,19.1959,109.7453,19,2020-01-25,0,0,China
435,Hebei,China,38.0428,114.5149,8,2020-01-25,0,1,China
436,Heilongjiang,China,47.861999999999995,127.7615,9,2020-01-25,0,1,China
437,Henan,China,33.882020000000004,113.61399999999999,32,2020-01-25,0,0,China
438,Hubei,China,30.9756,112.2707,761,2020-01-25,32,40,China
439,Hunan,China,27.6104,111.7088,43,2020-01-25,0,0,China
440,Inner Mongolia,China,44.0935,113.9448,7,2020-01-25,0,0,China
441,Jiangsu,China,32.9711,119.455,18,2020-01-25,1,0,China
442,Jiangxi,China,27.614,115.7221,18,2020-01-25,0,0,China
443,Jilin,China,43.6661,126.1923,4,2020-01-25,0,0,China
444,Liaoning,China,41.2956,122.6085,17,2020-01-25,0,0,China
445,Ningxia,China,37.2692,106.1655,3,2020-01-25,0,0,China
446,Qinghai,China,35.7452,95.9956,1,2020-01-25,0,0,China
447,Shaanxi,China,35.1917,108.8701,15,2020-01-25,0,0,China
448,Shandong,China,36.3427,118.1498,27,2020-01-25,0,0,China
449,Shanghai,China,31.201999999999998,121.4491,33,2020-01-25,1,0,China
450,Shanxi,China,37.5777,112.2922,6,2020-01-25,0,0,China
451,Sichuan,China,30.6171,102.7103,28,2020-01-25,0,0,China
452,Tianjin,China,39.3054,117.323,10,2020-01-25,0,0,China
453,Tibet,China,31.6927,88.0924,0,2020-01-25,0,0,China
454,Xinjiang,China,41.1129,85.2401,3,2020-01-25,0,0,China
455,Yunnan,China,24.974,101.48700000000001,11,2020-01-25,0,0,China
456,Zhejiang,China,29.1832,120.0934,62,2020-01-25,1,0,China
457,Thailand,Thailand,15.0,101.0,7,2020-01-25,0,0,Thailand
458,Japan,Japan,36.0,138.0,2,2020-01-25,0,0,Japan
459,South Korea,South Korea,36.0,128.0,2,2020-01-25,0,0,South Korea
460,Taiwan,Taiwan,23.7,121.0,3,2020-01-25,0,0,Taiwan
461,"King County, WA",United States of America,47.6062,-122.3321,1,2020-01-25,0,0,United States of America
462,"Cook County, IL",United States of America,41.8781,-87.6298,1,2020-01-25,0,0,United States of America
463,"Tempe, AZ",United States of America,33.4255,-111.94,0,2020-01-25,0,0,United States of America
464,Macau,Macau,22.1667,113.55,2,2020-01-25,0,0,Macau
465,Hong Kong,Hong Kong,22.3,114.2,5,2020-01-25,0,0,Hong Kong
466,Singapore,Singapore,1.2833,103.8333,3,2020-01-25,0,0,Singapore
467,Vietnam,Vietnam,16.0,108.0,2,2020-01-25,0,0,Vietnam
468,France,France,47.0,2.0,3,2020-01-25,0,0,France
469,Nepal,Nepal,28.1667,84.25,1,2020-01-25,0,0,Nepal
470,Malaysia,Malaysia,2.5,112.5,3,2020-01-25,0,0,Malaysia
471,"Toronto, ON",Canada,43.6532,-79.3832,0,2020-01-25,0,0,Canada
472,British Columbia,Canada,49.2827,-123.1207,0,2020-01-25,0,0,Canada
473,"Orange, CA",United States of America,33.7879,-117.8531,0,2020-01-25,0,0,United States of America
474,"Los Angeles, CA",United States of America,34.0522,-118.2437,0,2020-01-25,0,0,United States of America
475,New South Wales,Australia,-33.8688,151.2093,0,2020-01-25,0,0,Australia
476,Victoria,Australia,-37.8136,144.9631,0,2020-01-25,0,0,Australia
477,Queensland,Australia,-28.0167,153.4,0,2020-01-25,0,0,Australia
478,Cambodia,Cambodia,11.55,104.9167,0,2020-01-25,0,0,Cambodia
479,Sri Lanka,Sri Lanka,7.0,81.0,0,2020-01-25,0,0,Sri Lanka
480,Germany,Germany,51.0,9.0,0,2020-01-25,0,0,Germany
481,Finland,Finland,64.0,26.0,0,2020-01-25,0,0,Finland
482,United Arab Emirates,United Arab Emirates,24.0,54.0,0,2020-01-25,0,0,United Arab Emirates
483,Philippines,Philippines,13.0,122.0,0,2020-01-25,0,0,Philippines
484,India,India,21.0,78.0,0,2020-01-25,0,0,India
485,"London, ON",Canada,42.9849,-81.2453,0,2020-01-25,0,0,Canada
486,Italy,Italy,43.0,12.0,0,2020-01-25,0,0,Italy
487,UK,UK,55.0,-3.0,0,2020-01-25,0,0,UK
488,Russia,Russia,60.0,90.0,0,2020-01-25,0,0,Russia
489,Sweden,Sweden,63.0,16.0,0,2020-01-25,0,0,Sweden
490,"Santa Clara, CA",United States of America,37.3541,-121.9552,0,2020-01-25,0,0,United States of America
491,Spain,Spain,40.0,-4.0,0,2020-01-25,0,0,Spain
492,South Australia,Australia,-34.9285,138.6007,0,2020-01-25,0,0,Australia
493,"Boston, MA",United States of America,42.3601,-71.0589,0,2020-01-25,0,0,United States of America
494,"San Benito, CA",United States of America,36.5761,-120.9876,0,2020-01-25,0,0,United States of America
495,Belgium,Belgium,50.8333,4.0,0,2020-01-25,0,0,Belgium
496,"Madison, WI",United States of America,43.0731,-89.4012,0,2020-01-25,0,0,United States of America
497,Diamond Princess cruise ship,Others,35.4437,139.638,0,2020-01-25,0,0,Others
498,"San Diego County, CA",United States of America,32.7157,-117.1611,0,2020-01-25,0,0,United States of America
499,"San Antonio, TX",United States of America,29.4241,-98.4936,0,2020-01-25,0,0,United States of America
500,Egypt,Egypt,26.0,30.0,0,2020-01-25,0,0,Egypt
501,Iran,Iran,32.0,53.0,0,2020-01-25,0,0,Iran
502,"Omaha, NE (From Diamond Princess)",United States of America,41.2545,-95.9758,0,2020-01-25,0,0,United States of America
503,"Travis, CA (From Diamond Princess)",United States of America,38.2721,-121.9399,0,2020-01-25,0,0,United States of America
504,From Diamond Princess,Australia,35.4437,139.638,0,2020-01-25,0,0,Australia
505,"Lackland, TX (From Diamond Princess)",United States of America,29.3829,-98.6134,0,2020-01-25,0,0,United States of America
506,Lebanon,Lebanon,33.8547,35.8623,0,2020-01-25,0,0,Lebanon
507,"Humboldt County, CA",United States of America,40.745,-123.8695,0,2020-01-25,0,0,United States of America
508,"Sacramento County, CA",United States of America,38.4747,-121.3542,0,2020-01-25,0,0,United States of America
509,Iraq,Iraq,33.0,44.0,0,2020-01-25,0,0,Iraq
510,Unassigned Location (From Diamond Princess),United States of America,35.4437,139.638,0,2020-01-25,0,0,United States of America
511,Oman,Oman,21.0,57.0,0,2020-01-25,0,0,Oman
512,Afghanistan,Afghanistan,33.0,65.0,0,2020-01-25,0,0,Afghanistan
513,Bahrain,Bahrain,26.0275,50.55,0,2020-01-25,0,0,Bahrain
514,Kuwait,Kuwait,29.5,47.75,0,2020-01-25,0,0,Kuwait
515,Algeria,Algeria,28.0339,1.6596,0,2020-01-25,0,0,Algeria
516,Croatia,Croatia,45.1,15.2,0,2020-01-25,0,0,Croatia
517,Switzerland,Switzerland,46.8182,8.2275,0,2020-01-25,0,0,Switzerland
518,Austria,Austria,47.5162,14.5501,0,2020-01-25,0,0,Austria
519,Israel,Israel,31.0,35.0,0,2020-01-25,0,0,Israel
520,Pakistan,Pakistan,30.3753,69.3451,0,2020-01-25,0,0,Pakistan
521,Brazil,Brazil,-14.235,-51.9253,0,2020-01-25,0,0,Brazil
522,Georgia,Georgia,42.3154,43.3569,0,2020-01-25,0,0,Georgia
523,Greece,Greece,39.0742,21.8243,0,2020-01-25,0,0,Greece
524,North Macedonia,North Macedonia,41.6086,21.7453,0,2020-01-25,0,0,North Macedonia
525,Norway,Norway,60.472,8.4689,0,2020-01-25,0,0,Norway
526,Romania,Romania,45.9432,24.9668,0,2020-01-25,0,0,Romania
527,Denmark,Denmark,56.2639,9.5018,0,2020-01-25,0,0,Denmark
528,Estonia,Estonia,58.5953,25.0136,0,2020-01-25,0,0,Estonia
529,Netherlands,Netherlands,52.1326,5.2913,0,2020-01-25,0,0,Netherlands
530,San Marino,San Marino,43.9424,12.4578,0,2020-01-25,0,0,San Marino
531,Belarus,Belarus,53.7098,27.9534,0,2020-01-25,0,0,Belarus
532," Montreal, QC",Canada,45.5017,-73.5673,0,2020-01-25,0,0,Canada
533,Iceland,Iceland,64.9631,-19.0208,0,2020-01-25,0,0,Iceland
534,Lithuania,Lithuania,55.1694,23.8813,0,2020-01-25,0,0,Lithuania
535,Mexico,Mexico,23.6345,-102.5528,0,2020-01-25,0,0,Mexico
536,New Zealand,New Zealand,-40.9006,174.886,0,2020-01-25,0,0,New Zealand
537,Nigeria,Nigeria,9.082,8.6753,0,2020-01-25,0,0,Nigeria
538,Western Australia,Australia,-31.9505,115.8605,0,2020-01-25,0,0,Australia
539,Ireland,Ireland,53.1424,-7.6921,0,2020-01-25,0,0,Ireland
540,Luxembourg,Luxembourg,49.8153,6.1296,0,2020-01-25,0,0,Luxembourg
541,Monaco,Monaco,43.7333,7.4167,0,2020-01-25,0,0,Monaco
542,Qatar,Qatar,25.3548,51.1839,0,2020-01-25,0,0,Qatar
543,"Portland, OR",United States of America,45.5051,-122.675,0,2020-01-25,0,0,United States of America
544,"Snohomish County, WA",United States of America,48.033,-121.8339,0,2020-01-25,0,0,United States of America
545,Ecuador,Ecuador,-1.8312,-78.1834,0,2020-01-25,0,0,Ecuador
546,Azerbaijan,Azerbaijan,40.1431,47.5769,0,2020-01-25,0,0,Azerbaijan
547,Czech Republic,Czech Republic,49.8175,15.472999999999999,0,2020-01-25,0,0,Czech Republic
548,Armenia,Armenia,40.0691,45.0382,0,2020-01-25,0,0,Armenia
549,Dominican Republic,Dominican Republic,18.7357,-70.1627,0,2020-01-25,0,0,Dominican Republic
550,"Providence, RI",United States of America,41.824,-71.4128,0,2020-01-25,0,0,United States of America
551,"Cook County, IL",United States of America,41.7377,-87.6976,0,2020-01-25,0,0,United States of America
552,Indonesia,Indonesia,-0.7893,113.9213,0,2020-01-25,0,0,Indonesia
553,Portugal,Portugal,39.3999,-8.2245,0,2020-01-25,0,0,Portugal
554,Andorra,Andorra,42.5063,1.5218,0,2020-01-25,0,0,Andorra
555,Tasmania,Australia,-41.4545,145.9707,0,2020-01-25,0,0,Australia
556,Latvia,Latvia,56.8796,24.6032,0,2020-01-25,0,0,Latvia
557,Morocco,Morocco,31.7917,-7.0926,0,2020-01-25,0,0,Morocco
558,Saudi Arabia,Saudi Arabia,24.0,45.0,0,2020-01-25,0,0,Saudi Arabia
559,Senegal,Senegal,14.4974,-14.4524,0,2020-01-25,0,0,Senegal
560,"Grafton County, NH",United States of America,43.9088,-71.82600000000001,0,2020-01-25,0,0,United States of America
561,"Hillsborough, FL",United States of America,27.9904,-82.3018,0,2020-01-25,0,0,United States of America
562,"New York City, NY",United States of America,40.7128,-74.006,0,2020-01-25,0,0,United States of America
563,"Placer County, CA",United States of America,39.0916,-120.8039,0,2020-01-25,0,0,United States of America
564,"San Mateo, CA",United States of America,37.563,-122.3255,0,2020-01-25,0,0,United States of America
565,"Sarasota, FL",United States of America,27.3364,-82.5307,0,2020-01-25,0,0,United States of America
566,"Sonoma County, CA",United States of America,38.578,-122.9888,0,2020-01-25,0,0,United States of America
567,"Umatilla, OR",United States of America,45.775,-118.7606,0,2020-01-25,0,0,United States of America
568,Anhui,China,31.8257,117.2264,60,2020-01-26,0,0,China
569,Beijing,China,40.1824,116.4142,68,2020-01-26,2,0,China
570,Chongqing,China,30.0572,107.874,75,2020-01-26,0,0,China
571,Fujian,China,26.0789,117.9874,35,2020-01-26,0,0,China
572,Gansu,China,36.0611,103.8343,7,2020-01-26,0,0,China
573,Guangdong,China,23.3417,113.4244,111,2020-01-26,2,0,China
574,Guangxi,China,23.8298,108.7881,36,2020-01-26,0,0,China
575,Guizhou,China,26.8154,106.8748,5,2020-01-26,0,0,China
576,Hainan,China,19.1959,109.7453,22,2020-01-26,0,0,China
577,Hebei,China,38.0428,114.5149,13,2020-01-26,0,1,China
578,Heilongjiang,China,47.861999999999995,127.7615,15,2020-01-26,0,1,China
579,Henan,China,33.882020000000004,113.61399999999999,83,2020-01-26,0,1,China
580,Hubei,China,30.9756,112.2707,1058,2020-01-26,42,52,China
581,Hunan,China,27.6104,111.7088,69,2020-01-26,0,0,China
582,Inner Mongolia,China,44.0935,113.9448,7,2020-01-26,0,0,China
583,Jiangsu,China,32.9711,119.455,33,2020-01-26,1,0,China
584,Jiangxi,China,27.614,115.7221,36,2020-01-26,0,0,China
585,Jilin,China,43.6661,126.1923,4,2020-01-26,0,0,China
586,Liaoning,China,41.2956,122.6085,21,2020-01-26,0,0,China
587,Ningxia,China,37.2692,106.1655,4,2020-01-26,0,0,China
588,Qinghai,China,35.7452,95.9956,1,2020-01-26,0,0,China
589,Shaanxi,China,35.1917,108.8701,22,2020-01-26,0,0,China
590,Shandong,China,36.3427,118.1498,46,2020-01-26,0,0,China
591,Shanghai,China,31.201999999999998,121.4491,40,2020-01-26,1,1,China
592,Shanxi,China,37.5777,112.2922,9,2020-01-26,0,0,China
593,Sichuan,China,30.6171,102.7103,44,2020-01-26,0,0,China
594,Tianjin,China,39.3054,117.323,14,2020-01-26,0,0,China
595,Tibet,China,31.6927,88.0924,0,2020-01-26,0,0,China
596,Xinjiang,China,41.1129,85.2401,4,2020-01-26,0,0,China
597,Yunnan,China,24.974,101.48700000000001,16,2020-01-26,0,0,China
598,Zhejiang,China,29.1832,120.0934,104,2020-01-26,1,0,China
599,Thailand,Thailand,15.0,101.0,8,2020-01-26,2,0,Thailand
600,Japan,Japan,36.0,138.0,4,2020-01-26,1,0,Japan
601,South Korea,South Korea,36.0,128.0,3,2020-01-26,0,0,South Korea
602,Taiwan,Taiwan,23.7,121.0,4,2020-01-26,0,0,Taiwan
603,"King County, WA",United States of America,47.6062,-122.3321,1,2020-01-26,0,0,United States of America
604,"Cook County, IL",United States of America,41.8781,-87.6298,1,2020-01-26,0,0,United States of America
605,"Tempe, AZ",United States of America,33.4255,-111.94,1,2020-01-26,0,0,United States of America
606,Macau,Macau,22.1667,113.55,5,2020-01-26,0,0,Macau
607,Hong Kong,Hong Kong,22.3,114.2,8,2020-01-26,0,0,Hong Kong
608,Singapore,Singapore,1.2833,103.8333,4,2020-01-26,0,0,Singapore
609,Vietnam,Vietnam,16.0,108.0,2,2020-01-26,0,0,Vietnam
610,France,France,47.0,2.0,3,2020-01-26,0,0,France
611,Nepal,Nepal,28.1667,84.25,1,2020-01-26,0,0,Nepal
612,Malaysia,Malaysia,2.5,112.5,4,2020-01-26,0,0,Malaysia
613,"Toronto, ON",Canada,43.6532,-79.3832,1,2020-01-26,0,0,Canada
614,British Columbia,Canada,49.2827,-123.1207,0,2020-01-26,0,0,Canada
615,"Orange, CA",United States of America,33.7879,-117.8531,1,2020-01-26,0,0,United States of America
616,"Los Angeles, CA",United States of America,34.0522,-118.2437,1,2020-01-26,0,0,United States of America
617,New South Wales,Australia,-33.8688,151.2093,3,2020-01-26,0,0,Australia
618,Victoria,Australia,-37.8136,144.9631,1,2020-01-26,0,0,Australia
619,Queensland,Australia,-28.0167,153.4,0,2020-01-26,0,0,Australia
620,Cambodia,Cambodia,11.55,104.9167,0,2020-01-26,0,0,Cambodia
621,Sri Lanka,Sri Lanka,7.0,81.0,0,2020-01-26,0,0,Sri Lanka
622,Germany,Germany,51.0,9.0,0,2020-01-26,0,0,Germany
623,Finland,Finland,64.0,26.0,0,2020-01-26,0,0,Finland
624,United Arab Emirates,United Arab Emirates,24.0,54.0,0,2020-01-26,0,0,United Arab Emirates
625,Philippines,Philippines,13.0,122.0,0,2020-01-26,0,0,Philippines
626,India,India,21.0,78.0,0,2020-01-26,0,0,India
627,"London, ON",Canada,42.9849,-81.2453,0,2020-01-26,0,0,Canada
628,Italy,Italy,43.0,12.0,0,2020-01-26,0,0,Italy
629,UK,UK,55.0,-3.0,0,2020-01-26,0,0,UK
630,Russia,Russia,60.0,90.0,0,2020-01-26,0,0,Russia
631,Sweden,Sweden,63.0,16.0,0,2020-01-26,0,0,Sweden
632,"Santa Clara, CA",United States of America,37.3541,-121.9552,0,2020-01-26,0,0,United States of America
633,Spain,Spain,40.0,-4.0,0,2020-01-26,0,0,Spain
634,South Australia,Australia,-34.9285,138.6007,0,2020-01-26,0,0,Australia
635,"Boston, MA",United States of America,42.3601,-71.0589,0,2020-01-26,0,0,United States of America
636,"San Benito, CA",United States of America,36.5761,-120.9876,0,2020-01-26,0,0,United States of America
637,Belgium,Belgium,50.8333,4.0,0,2020-01-26,0,0,Belgium
638,"Madison, WI",United States of America,43.0731,-89.4012,0,2020-01-26,0,0,United States of America
639,Diamond Princess cruise ship,Others,35.4437,139.638,0,2020-01-26,0,0,Others
640,"San Diego County, CA",United States of America,32.7157,-117.1611,0,2020-01-26,0,0,United States of America
641,"San Antonio, TX",United States of America,29.4241,-98.4936,0,2020-01-26,0,0,United States of America
642,Egypt,Egypt,26.0,30.0,0,2020-01-26,0,0,Egypt
643,Iran,Iran,32.0,53.0,0,2020-01-26,0,0,Iran
644,"Omaha, NE (From Diamond Princess)",United States of America,41.2545,-95.9758,0,2020-01-26,0,0,United States of America
645,"Travis, CA (From Diamond Princess)",United States of America,38.2721,-121.9399,0,2020-01-26,0,0,United States of America
646,From Diamond Princess,Australia,35.4437,139.638,0,2020-01-26,0,0,Australia
647,"Lackland, TX (From Diamond Princess)",United States of America,29.3829,-98.6134,0,2020-01-26,0,0,United States of America
648,Lebanon,Lebanon,33.8547,35.8623,0,2020-01-26,0,0,Lebanon
649,"Humboldt County, CA",United States of America,40.745,-123.8695,0,2020-01-26,0,0,United States of America
650,"Sacramento County, CA",United States of America,38.4747,-121.3542,0,2020-01-26,0,0,United States of America
651,Iraq,Iraq,33.0,44.0,0,2020-01-26,0,0,Iraq
652,Unassigned Location (From Diamond Princess),United States of America,35.4437,139.638,0,2020-01-26,0,0,United States of America
653,Oman,Oman,21.0,57.0,0,2020-01-26,0,0,Oman
654,Afghanistan,Afghanistan,33.0,65.0,0,2020-01-26,0,0,Afghanistan
655,Bahrain,Bahrain,26.0275,50.55,0,2020-01-26,0,0,Bahrain
656,Kuwait,Kuwait,29.5,47.75,0,2020-01-26,0,0,Kuwait
657,Algeria,Algeria,28.0339,1.6596,0,2020-01-26,0,0,Algeria
658,Croatia,Croatia,45.1,15.2,0,2020-01-26,0,0,Croatia
659,Switzerland,Switzerland,46.8182,8.2275,0,2020-01-26,0,0,Switzerland
660,Austria,Austria,47.5162,14.5501,0,2020-01-26,0,0,Austria
661,Israel,Israel,31.0,35.0,0,2020-01-26,0,0,Israel
662,Pakistan,Pakistan,30.3753,69.3451,0,2020-01-26,0,0,Pakistan
663,Brazil,Brazil,-14.235,-51.9253,0,2020-01-26,0,0,Brazil
664,Georgia,Georgia,42.3154,43.3569,0,2020-01-26,0,0,Georgia
665,Greece,Greece,39.0742,21.8243,0,2020-01-26,0,0,Greece
666,North Macedonia,North Macedonia,41.6086,21.7453,0,2020-01-26,0,0,North Macedonia
667,Norway,Norway,60.472,8.4689,0,2020-01-26,0,0,Norway
668,Romania,Romania,45.9432,24.9668,0,2020-01-26,0,0,Romania
669,Denmark,Denmark,56.2639,9.5018,0,2020-01-26,0,0,Denmark
670,Estonia,Estonia,58.5953,25.0136,0,2020-01-26,0,0,Estonia
671,Netherlands,Netherlands,52.1326,5.2913,0,2020-01-26,0,0,Netherlands
672,San Marino,San Marino,43.9424,12.4578,0,2020-01-26,0,0,San Marino
673,Belarus,Belarus,53.7098,27.9534,0,2020-01-26,0,0,Belarus
674," Montreal, QC",Canada,45.5017,-73.5673,0,2020-01-26,0,0,Canada
675,Iceland,Iceland,64.9631,-19.0208,0,2020-01-26,0,0,Iceland
676,Lithuania,Lithuania,55.1694,23.8813,0,2020-01-26,0,0,Lithuania
677,Mexico,Mexico,23.6345,-102.5528,0,2020-01-26,0,0,Mexico
678,New Zealand,New Zealand,-40.9006,174.886,0,2020-01-26,0,0,New Zealand
679,Nigeria,Nigeria,9.082,8.6753,0,2020-01-26,0,0,Nigeria
680,Western Australia,Australia,-31.9505,115.8605,0,2020-01-26,0,0,Australia
681,Ireland,Ireland,53.1424,-7.6921,0,2020-01-26,0,0,Ireland
682,Luxembourg,Luxembourg,49.8153,6.1296,0,2020-01-26,0,0,Luxembourg
683,Monaco,Monaco,43.7333,7.4167,0,2020-01-26,0,0,Monaco
684,Qatar,Qatar,25.3548,51.1839,0,2020-01-26,0,0,Qatar
685,"Portland, OR",United States of America,45.5051,-122.675,0,2020-01-26,0,0,United States of America
686,"Snohomish County, WA",United States of America,48.033,-121.8339,0,2020-01-26,0,0,United States of America
687,Ecuador,Ecuador,-1.8312,-78.1834,0,2020-01-26,0,0,Ecuador
688,Azerbaijan,Azerbaijan,40.1431,47.5769,0,2020-01-26,0,0,Azerbaijan
689,Czech Republic,Czech Republic,49.8175,15.472999999999999,0,2020-01-26,0,0,Czech Republic
690,Armenia,Armenia,40.0691,45.0382,0,2020-01-26,0,0,Armenia
691,Dominican Republic,Dominican Republic,18.7357,-70.1627,0,2020-01-26,0,0,Dominican Republic
692,"Providence, RI",United States of America,41.824,-71.4128,0,2020-01-26,0,0,United States of America
693,"Cook County, IL",United States of America,41.7377,-87.6976,0,2020-01-26,0,0,United States of America
694,Indonesia,Indonesia,-0.7893,113.9213,0,2020-01-26,0,0,Indonesia
695,Portugal,Portugal,39.3999,-8.2245,0,2020-01-26,0,0,Portugal
696,Andorra,Andorra,42.5063,1.5218,0,2020-01-26,0,0,Andorra
697,Tasmania,Australia,-41.4545,145.9707,0,2020-01-26,0,0,Australia
698,Latvia,Latvia,56.8796,24.6032,0,2020-01-26,0,0,Latvia
699,Morocco,Morocco,31.7917,-7.0926,0,2020-01-26,0,0,Morocco
700,Saudi Arabia,Saudi Arabia,24.0,45.0,0,2020-01-26,0,0,Saudi Arabia
701,Senegal,Senegal,14.4974,-14.4524,0,2020-01-26,0,0,Senegal
702,"Grafton County, NH",United States of America,43.9088,-71.82600000000001,0,2020-01-26,0,0,United States of America
703,"Hillsborough, FL",United States of America,27.9904,-82.3018,0,2020-01-26,0,0,United States of America
704,"New York City, NY",United States of America,40.7128,-74.006,0,2020-01-26,0,0,United States of America
705,"Placer County, CA",United States of America,39.0916,-120.8039,0,2020-01-26,0,0,United States of America
706,"San Mateo, CA",United States of America,37.563,-122.3255,0,2020-01-26,0,0,United States of America
707,"Sarasota, FL",United States of America,27.3364,-82.5307,0,2020-01-26,0,0,United States of America
708,"Sonoma County, CA",United States of America,38.578,-122.9888,0,2020-01-26,0,0,United States of America
709,"Umatilla, OR",United States of America,45.775,-118.7606,0,2020-01-26,0,0,United States of America
710,Anhui,China,31.8257,117.2264,70,2020-01-27,0,0,China
711,Beijing,China,40.1824,116.4142,80,2020-01-27,2,1,China
712,Chongqing,China,30.0572,107.874,110,2020-01-27,0,0,China
713,Fujian,China,26.0789,117.9874,59,2020-01-27,0,0,China
714,Gansu,China,36.0611,103.8343,14,2020-01-27,0,0,China
715,Guangdong,China,23.3417,113.4244,151,2020-01-27,4,0,China
716,Guangxi,China,23.8298,108.7881,46,2020-01-27,0,0,China
717,Guizhou,China,26.8154,106.8748,7,2020-01-27,0,0,China
718,Hainan,China,19.1959,109.7453,33,2020-01-27,0,1,China
719,Hebei,China,38.0428,114.5149,18,2020-01-27,0,1,China
720,Heilongjiang,China,47.861999999999995,127.7615,21,2020-01-27,0,1,China
721,Henan,China,33.882020000000004,113.61399999999999,128,2020-01-27,0,1,China
722,Hubei,China,30.9756,112.2707,1423,2020-01-27,45,76,China
723,Hunan,China,27.6104,111.7088,100,2020-01-27,0,0,China
724,Inner Mongolia,China,44.0935,113.9448,11,2020-01-27,0,0,China
725,Jiangsu,China,32.9711,119.455,47,2020-01-27,1,0,China
726,Jiangxi,China,27.614,115.7221,72,2020-01-27,2,0,China
727,Jilin,China,43.6661,126.1923,6,2020-01-27,0,0,China
728,Liaoning,China,41.2956,122.6085,27,2020-01-27,0,0,China
729,Ningxia,China,37.2692,106.1655,7,2020-01-27,0,0,China
730,Qinghai,China,35.7452,95.9956,6,2020-01-27,0,0,China
731,Shaanxi,China,35.1917,108.8701,35,2020-01-27,0,0,China
732,Shandong,China,36.3427,118.1498,75,2020-01-27,0,0,China
733,Shanghai,China,31.201999999999998,121.4491,53,2020-01-27,3,1,China
734,Shanxi,China,37.5777,112.2922,13,2020-01-27,0,0,China
735,Sichuan,China,30.6171,102.7103,69,2020-01-27,0,0,China
736,Tianjin,China,39.3054,117.323,23,2020-01-27,0,0,China
737,Tibet,China,31.6927,88.0924,0,2020-01-27,0,0,China
738,Xinjiang,China,41.1129,85.2401,5,2020-01-27,0,0,China
739,Yunnan,China,24.974,101.48700000000001,26,2020-01-27,0,0,China
740,Zhejiang,China,29.1832,120.0934,128,2020-01-27,1,0,China
741,Thailand,Thailand,15.0,101.0,8,2020-01-27,2,0,Thailand
742,Japan,Japan,36.0,138.0,4,2020-01-27,1,0,Japan
743,South Korea,South Korea,36.0,128.0,4,2020-01-27,0,0,South Korea
744,Taiwan,Taiwan,23.7,121.0,5,2020-01-27,0,0,Taiwan
745,"King County, WA",United States of America,47.6062,-122.3321,1,2020-01-27,0,0,United States of America
746,"Cook County, IL",United States of America,41.8781,-87.6298,1,2020-01-27,0,0,United States of America
747,"Tempe, AZ",United States of America,33.4255,-111.94,1,2020-01-27,0,0,United States of America
748,Macau,Macau,22.1667,113.55,6,2020-01-27,0,0,Macau
749,Hong Kong,Hong Kong,22.3,114.2,8,2020-01-27,0,0,Hong Kong
750,Singapore,Singapore,1.2833,103.8333,5,2020-01-27,0,0,Singapore
751,Vietnam,Vietnam,16.0,108.0,2,2020-01-27,0,0,Vietnam
752,France,France,47.0,2.0,3,2020-01-27,0,0,France
753,Nepal,Nepal,28.1667,84.25,1,2020-01-27,0,0,Nepal
754,Malaysia,Malaysia,2.5,112.5,4,2020-01-27,0,0,Malaysia
755,"Toronto, ON",Canada,43.6532,-79.3832,1,2020-01-27,0,0,Canada
756,British Columbia,Canada,49.2827,-123.1207,0,2020-01-27,0,0,Canada
757,"Orange, CA",United States of America,33.7879,-117.8531,1,2020-01-27,0,0,United States of America
758,"Los Angeles, CA",United States of America,34.0522,-118.2437,1,2020-01-27,0,0,United States of America
759,New South Wales,Australia,-33.8688,151.2093,4,2020-01-27,0,0,Australia
760,Victoria,Australia,-37.8136,144.9631,1,2020-01-27,0,0,Australia
761,Queensland,Australia,-28.0167,153.4,0,2020-01-27,0,0,Australia
762,Cambodia,Cambodia,11.55,104.9167,1,2020-01-27,0,0,Cambodia
763,Sri Lanka,Sri Lanka,7.0,81.0,1,2020-01-27,0,0,Sri Lanka
764,Germany,Germany,51.0,9.0,1,2020-01-27,0,0,Germany
765,Finland,Finland,64.0,26.0,0,2020-01-27,0,0,Finland
766,United Arab Emirates,United Arab Emirates,24.0,54.0,0,2020-01-27,0,0,United Arab Emirates
767,Philippines,Philippines,13.0,122.0,0,2020-01-27,0,0,Philippines
768,India,India,21.0,78.0,0,2020-01-27,0,0,India
769,"London, ON",Canada,42.9849,-81.2453,0,2020-01-27,0,0,Canada
770,Italy,Italy,43.0,12.0,0,2020-01-27,0,0,Italy
771,UK,UK,55.0,-3.0,0,2020-01-27,0,0,UK
772,Russia,Russia,60.0,90.0,0,2020-01-27,0,0,Russia
773,Sweden,Sweden,63.0,16.0,0,2020-01-27,0,0,Sweden
774,"Santa Clara, CA",United States of America,37.3541,-121.9552,0,2020-01-27,0,0,United States of America
775,Spain,Spain,40.0,-4.0,0,2020-01-27,0,0,Spain
776,South Australia,Australia,-34.9285,138.6007,0,2020-01-27,0,0,Australia
777,"Boston, MA",United States of America,42.3601,-71.0589,0,2020-01-27,0,0,United States of America
778,"San Benito, CA",United States of America,36.5761,-120.9876,0,2020-01-27,0,0,United States of America
779,Belgium,Belgium,50.8333,4.0,0,2020-01-27,0,0,Belgium
780,"Madison, WI",United States of America,43.0731,-89.4012,0,2020-01-27,0,0,United States of America
781,Diamond Princess cruise ship,Others,35.4437,139.638,0,2020-01-27,0,0,Others
782,"San Diego County, CA",United States of America,32.7157,-117.1611,0,2020-01-27,0,0,United States of America
783,"San Antonio, TX",United States of America,29.4241,-98.4936,0,2020-01-27,0,0,United States of America
784,Egypt,Egypt,26.0,30.0,0,2020-01-27,0,0,Egypt
785,Iran,Iran,32.0,53.0,0,2020-01-27,0,0,Iran
786,"Omaha, NE (From Diamond Princess)",United States of America,41.2545,-95.9758,0,2020-01-27,0,0,United States of America
787,"Travis, CA (From Diamond Princess)",United States of America,38.2721,-121.9399,0,2020-01-27,0,0,United States of America
788,From Diamond Princess,Australia,35.4437,139.638,0,2020-01-27,0,0,Australia
789,"Lackland, TX (From Diamond Princess)",United States of America,29.3829,-98.6134,0,2020-01-27,0,0,United States of America
790,Lebanon,Lebanon,33.8547,35.8623,0,2020-01-27,0,0,Lebanon
791,"Humboldt County, CA",United States of America,40.745,-123.8695,0,2020-01-27,0,0,United States of America
792,"Sacramento County, CA",United States of America,38.4747,-121.3542,0,2020-01-27,0,0,United States of America
793,Iraq,Iraq,33.0,44.0,0,2020-01-27,0,0,Iraq
794,Unassigned Location (From Diamond Princess),United States of America,35.4437,139.638,0,2020-01-27,0,0,United States of America
795,Oman,Oman,21.0,57.0,0,2020-01-27,0,0,Oman
796,Afghanistan,Afghanistan,33.0,65.0,0,2020-01-27,0,0,Afghanistan
797,Bahrain,Bahrain,26.0275,50.55,0,2020-01-27,0,0,Bahrain
798,Kuwait,Kuwait,29.5,47.75,0,2020-01-27,0,0,Kuwait
799,Algeria,Algeria,28.0339,1.6596,0,2020-01-27,0,0,Algeria
800,Croatia,Croatia,45.1,15.2,0,2020-01-27,0,0,Croatia
801,Switzerland,Switzerland,46.8182,8.2275,0,2020-01-27,0,0,Switzerland
802,Austria,Austria,47.5162,14.5501,0,2020-01-27,0,0,Austria
803,Israel,Israel,31.0,35.0,0,2020-01-27,0,0,Israel
804,Pakistan,Pakistan,30.3753,69.3451,0,2020-01-27,0,0,Pakistan
805,Brazil,Brazil,-14.235,-51.9253,0,2020-01-27,0,0,Brazil
806,Georgia,Georgia,42.3154,43.3569,0,2020-01-27,0,0,Georgia
807,Greece,Greece,39.0742,21.8243,0,2020-01-27,0,0,Greece
808,North Macedonia,North Macedonia,41.6086,21.7453,0,2020-01-27,0,0,North Macedonia
809,Norway,Norway,60.472,8.4689,0,2020-01-27,0,0,Norway
810,Romania,Romania,45.9432,24.9668,0,2020-01-27,0,0,Romania
811,Denmark,Denmark,56.2639,9.5018,0,2020-01-27,0,0,Denmark
812,Estonia,Estonia,58.5953,25.0136,0,2020-01-27,0,0,Estonia
813,Netherlands,Netherlands,52.1326,5.2913,0,2020-01-27,0,0,Netherlands
814,San Marino,San Marino,43.9424,12.4578,0,2020-01-27,0,0,San Marino
815,Belarus,Belarus,53.7098,27.9534,0,2020-01-27,0,0,Belarus
816," Montreal, QC",Canada,45.5017,-73.5673,0,2020-01-27,0,0,Canada
817,Iceland,Iceland,64.9631,-19.0208,0,2020-01-27,0,0,Iceland
818,Lithuania,Lithuania,55.1694,23.8813,0,2020-01-27,0,0,Lithuania
819,Mexico,Mexico,23.6345,-102.5528,0,2020-01-27,0,0,Mexico
820,New Zealand,New Zealand,-40.9006,174.886,0,2020-01-27,0,0,New Zealand
821,Nigeria,Nigeria,9.082,8.6753,0,2020-01-27,0,0,Nigeria
822,Western Australia,Australia,-31.9505,115.8605,0,2020-01-27,0,0,Australia
823,Ireland,Ireland,53.1424,-7.6921,0,2020-01-27,0,0,Ireland
824,Luxembourg,Luxembourg,49.8153,6.1296,0,2020-01-27,0,0,Luxembourg
825,Monaco,Monaco,43.7333,7.4167,0,2020-01-27,0,0,Monaco
826,Qatar,Qatar,25.3548,51.1839,0,2020-01-27,0,0,Qatar
827,"Portland, OR",United States of America,45.5051,-122.675,0,2020-01-27,0,0,United States of America
828,"Snohomish County, WA",United States of America,48.033,-121.8339,0,2020-01-27,0,0,United States of America
829,Ecuador,Ecuador,-1.8312,-78.1834,0,2020-01-27,0,0,Ecuador
830,Azerbaijan,Azerbaijan,40.1431,47.5769,0,2020-01-27,0,0,Azerbaijan
831,Czech Republic,Czech Republic,49.8175,15.472999999999999,0,2020-01-27,0,0,Czech Republic
832,Armenia,Armenia,40.0691,45.0382,0,2020-01-27,0,0,Armenia
833,Dominican Republic,Dominican Republic,18.7357,-70.1627,0,2020-01-27,0,0,Dominican Republic
834,"Providence, RI",United States of America,41.824,-71.4128,0,2020-01-27,0,0,United States of America
835,"Cook County, IL",United States of America,41.7377,-87.6976,0,2020-01-27,0,0,United States of America
836,Indonesia,Indonesia,-0.7893,113.9213,0,2020-01-27,0,0,Indonesia
837,Portugal,Portugal,39.3999,-8.2245,0,2020-01-27,0,0,Portugal
838,Andorra,Andorra,42.5063,1.5218,0,2020-01-27,0,0,Andorra
839,Tasmania,Australia,-41.4545,145.9707,0,2020-01-27,0,0,Australia
840,Latvia,Latvia,56.8796,24.6032,0,2020-01-27,0,0,Latvia
841,Morocco,Morocco,31.7917,-7.0926,0,2020-01-27,0,0,Morocco
842,Saudi Arabia,Saudi Arabia,24.0,45.0,0,2020-01-27,0,0,Saudi Arabia
843,Senegal,Senegal,14.4974,-14.4524,0,2020-01-27,0,0,Senegal
844,"Grafton County, NH",United States of America,43.9088,-71.82600000000001,0,2020-01-27,0,0,United States of America
845,"Hillsborough, FL",United States of America,27.9904,-82.3018,0,2020-01-27,0,0,United States of America
846,"New York City, NY",United States of America,40.7128,-74.006,0,2020-01-27,0,0,United States of America
847,"Placer County, CA",United States of America,39.0916,-120.8039,0,2020-01-27,0,0,United States of America
848,"San Mateo, CA",United States of America,37.563,-122.3255,0,2020-01-27,0,0,United States of America
849,"Sarasota, FL",United States of America,27.3364,-82.5307,0,2020-01-27,0,0,United States of America
850,"Sonoma County, CA",United States of America,38.578,-122.9888,0,2020-01-27,0,0,United States of America
851,"Umatilla, OR",United States of America,45.775,-118.7606,0,2020-01-27,0,0,United States of America
852,Anhui,China,31.8257,117.2264,106,2020-01-28,0,0,China
853,Beijing,China,40.1824,116.4142,91,2020-01-28,4,1,China
854,Chongqing,China,30.0572,107.874,132,2020-01-28,0,0,China
855,Fujian,China,26.0789,117.9874,80,2020-01-28,0,0,China
856,Gansu,China,36.0611,103.8343,19,2020-01-28,0,0,China
857,Guangdong,China,23.3417,113.4244,207,2020-01-28,4,0,China
858,Guangxi,China,23.8298,108.7881,51,2020-01-28,2,0,China
859,Guizhou,China,26.8154,106.8748,9,2020-01-28,0,0,China
860,Hainan,China,19.1959,109.7453,40,2020-01-28,0,1,China
861,Hebei,China,38.0428,114.5149,33,2020-01-28,0,1,China
862,Heilongjiang,China,47.861999999999995,127.7615,33,2020-01-28,0,1,China
863,Henan,China,33.882020000000004,113.61399999999999,168,2020-01-28,0,1,China
864,Hubei,China,30.9756,112.2707,3554,2020-01-28,80,125,China
865,Hunan,China,27.6104,111.7088,143,2020-01-28,0,0,China
866,Inner Mongolia,China,44.0935,113.9448,15,2020-01-28,0,0,China
867,Jiangsu,China,32.9711,119.455,70,2020-01-28,1,0,China
868,Jiangxi,China,27.614,115.7221,109,2020-01-28,3,0,China
869,Jilin,China,43.6661,126.1923,8,2020-01-28,0,0,China
870,Liaoning,China,41.2956,122.6085,34,2020-01-28,0,0,China
871,Ningxia,China,37.2692,106.1655,11,2020-01-28,0,0,China
872,Qinghai,China,35.7452,95.9956,6,2020-01-28,0,0,China
873,Shaanxi,China,35.1917,108.8701,46,2020-01-28,0,0,China
874,Shandong,China,36.3427,118.1498,95,2020-01-28,0,0,China
875,Shanghai,China,31.201999999999998,121.4491,66,2020-01-28,4,1,China
876,Shanxi,China,37.5777,112.2922,27,2020-01-28,0,0,China
877,Sichuan,China,30.6171,102.7103,90,2020-01-28,0,0,China
878,Tianjin,China,39.3054,117.323,24,2020-01-28,0,0,China
879,Tibet,China,31.6927,88.0924,0,2020-01-28,0,0,China
880,Xinjiang,China,41.1129,85.2401,10,2020-01-28,0,0,China
881,Yunnan,China,24.974,101.48700000000001,44,2020-01-28,0,0,China
882,Zhejiang,China,29.1832,120.0934,173,2020-01-28,3,0,China
883,Thailand,Thailand,15.0,101.0,14,2020-01-28,5,0,Thailand
884,Japan,Japan,36.0,138.0,7,2020-01-28,1,0,Japan
885,South Korea,South Korea,36.0,128.0,4,2020-01-28,0,0,South Korea
886,Taiwan,Taiwan,23.7,121.0,8,2020-01-28,0,0,Taiwan
887,"King County, WA",United States of America,47.6062,-122.3321,1,2020-01-28,0,0,United States of America
888,"Cook County, IL",United States of America,41.8781,-87.6298,1,2020-01-28,0,0,United States of America
889,"Tempe, AZ",United States of America,33.4255,-111.94,1,2020-01-28,0,0,United States of America
890,Macau,Macau,22.1667,113.55,7,2020-01-28,0,0,Macau
891,Hong Kong,Hong Kong,22.3,114.2,8,2020-01-28,0,0,Hong Kong
892,Singapore,Singapore,1.2833,103.8333,7,2020-01-28,0,0,Singapore
893,Vietnam,Vietnam,16.0,108.0,2,2020-01-28,0,0,Vietnam
894,France,France,47.0,2.0,4,2020-01-28,0,0,France
895,Nepal,Nepal,28.1667,84.25,1,2020-01-28,0,0,Nepal
896,Malaysia,Malaysia,2.5,112.5,4,2020-01-28,0,0,Malaysia
897,"Toronto, ON",Canada,43.6532,-79.3832,1,2020-01-28,0,0,Canada
898,British Columbia,Canada,49.2827,-123.1207,1,2020-01-28,0,0,Canada
899,"Orange, CA",United States of America,33.7879,-117.8531,1,2020-01-28,0,0,United States of America
900,"Los Angeles, CA",United States of America,34.0522,-118.2437,1,2020-01-28,0,0,United States of America
901,New South Wales,Australia,-33.8688,151.2093,4,2020-01-28,0,0,Australia
902,Victoria,Australia,-37.8136,144.9631,1,2020-01-28,0,0,Australia
903,Queensland,Australia,-28.0167,153.4,0,2020-01-28,0,0,Australia
904,Cambodia,Cambodia,11.55,104.9167,1,2020-01-28,0,0,Cambodia
905,Sri Lanka,Sri Lanka,7.0,81.0,1,2020-01-28,0,0,Sri Lanka
906,Germany,Germany,51.0,9.0,4,2020-01-28,0,0,Germany
907,Finland,Finland,64.0,26.0,0,2020-01-28,0,0,Finland
908,United Arab Emirates,United Arab Emirates,24.0,54.0,0,2020-01-28,0,0,United Arab Emirates
909,Philippines,Philippines,13.0,122.0,0,2020-01-28,0,0,Philippines
910,India,India,21.0,78.0,0,2020-01-28,0,0,India
911,"London, ON",Canada,42.9849,-81.2453,0,2020-01-28,0,0,Canada
912,Italy,Italy,43.0,12.0,0,2020-01-28,0,0,Italy
913,UK,UK,55.0,-3.0,0,2020-01-28,0,0,UK
914,Russia,Russia,60.0,90.0,0,2020-01-28,0,0,Russia
915,Sweden,Sweden,63.0,16.0,0,2020-01-28,0,0,Sweden
916,"Santa Clara, CA",United States of America,37.3541,-121.9552,0,2020-01-28,0,0,United States of America
917,Spain,Spain,40.0,-4.0,0,2020-01-28,0,0,Spain
918,South Australia,Australia,-34.9285,138.6007,0,2020-01-28,0,0,Australia
919,"Boston, MA",United States of America,42.3601,-71.0589,0,2020-01-28,0,0,United States of America
920,"San Benito, CA",United States of America,36.5761,-120.9876,0,2020-01-28,0,0,United States of America
921,Belgium,Belgium,50.8333,4.0,0,2020-01-28,0,0,Belgium
922,"Madison, WI",United States of America,43.0731,-89.4012,0,2020-01-28,0,0,United States of America
923,Diamond Princess cruise ship,Others,35.4437,139.638,0,2020-01-28,0,0,Others
924,"San Diego County, CA",United States of America,32.7157,-117.1611,0,2020-01-28,0,0,United States of America
925,"San Antonio, TX",United States of America,29.4241,-98.4936,0,2020-01-28,0,0,United States of America
926,Egypt,Egypt,26.0,30.0,0,2020-01-28,0,0,Egypt
927,Iran,Iran,32.0,53.0,0,2020-01-28,0,0,Iran
928,"Omaha, NE (From Diamond Princess)",United States of America,41.2545,-95.9758,0,2020-01-28,0,0,United States of America
929,"Travis, CA (From Diamond Princess)",United States of America,38.2721,-121.9399,0,2020-01-28,0,0,United States of America
930,From Diamond Princess,Australia,35.4437,139.638,0,2020-01-28,0,0,Australia
931,"Lackland, TX (From Diamond Princess)",United States of America,29.3829,-98.6134,0,2020-01-28,0,0,United States of America
932,Lebanon,Lebanon,33.8547,35.8623,0,2020-01-28,0,0,Lebanon
933,"Humboldt County, CA",United States of America,40.745,-123.8695,0,2020-01-28,0,0,United States of America
934,"Sacramento County, CA",United States of America,38.4747,-121.3542,0,2020-01-28,0,0,United States of America
935,Iraq,Iraq,33.0,44.0,0,2020-01-28,0,0,Iraq
936,Unassigned Location (From Diamond Princess),United States of America,35.4437,139.638,0,2020-01-28,0,0,United States of America
937,Oman,Oman,21.0,57.0,0,2020-01-28,0,0,Oman
938,Afghanistan,Afghanistan,33.0,65.0,0,2020-01-28,0,0,Afghanistan
939,Bahrain,Bahrain,26.0275,50.55,0,2020-01-28,0,0,Bahrain
940,Kuwait,Kuwait,29.5,47.75,0,2020-01-28,0,0,Kuwait
941,Algeria,Algeria,28.0339,1.6596,0,2020-01-28,0,0,Algeria
942,Croatia,Croatia,45.1,15.2,0,2020-01-28,0,0,Croatia
943,Switzerland,Switzerland,46.8182,8.2275,0,2020-01-28,0,0,Switzerland
944,Austria,Austria,47.5162,14.5501,0,2020-01-28,0,0,Austria
945,Israel,Israel,31.0,35.0,0,2020-01-28,0,0,Israel
946,Pakistan,Pakistan,30.3753,69.3451,0,2020-01-28,0,0,Pakistan
947,Brazil,Brazil,-14.235,-51.9253,0,2020-01-28,0,0,Brazil
948,Georgia,Georgia,42.3154,43.3569,0,2020-01-28,0,0,Georgia
949,Greece,Greece,39.0742,21.8243,0,2020-01-28,0,0,Greece
950,North Macedonia,North Macedonia,41.6086,21.7453,0,2020-01-28,0,0,North Macedonia
951,Norway,Norway,60.472,8.4689,0,2020-01-28,0,0,Norway
952,Romania,Romania,45.9432,24.9668,0,2020-01-28,0,0,Romania
953,Denmark,Denmark,56.2639,9.5018,0,2020-01-28,0,0,Denmark
954,Estonia,Estonia,58.5953,25.0136,0,2020-01-28,0,0,Estonia
955,Netherlands,Netherlands,52.1326,5.2913,0,2020-01-28,0,0,Netherlands
956,San Marino,San Marino,43.9424,12.4578,0,2020-01-28,0,0,San Marino
957,Belarus,Belarus,53.7098,27.9534,0,2020-01-28,0,0,Belarus
958," Montreal, QC",Canada,45.5017,-73.5673,0,2020-01-28,0,0,Canada
959,Iceland,Iceland,64.9631,-19.0208,0,2020-01-28,0,0,Iceland
960,Lithuania,Lithuania,55.1694,23.8813,0,2020-01-28,0,0,Lithuania
961,Mexico,Mexico,23.6345,-102.5528,0,2020-01-28,0,0,Mexico
962,New Zealand,New Zealand,-40.9006,174.886,0,2020-01-28,0,0,New Zealand
963,Nigeria,Nigeria,9.082,8.6753,0,2020-01-28,0,0,Nigeria
964,Western Australia,Australia,-31.9505,115.8605,0,2020-01-28,0,0,Australia
965,Ireland,Ireland,53.1424,-7.6921,0,2020-01-28,0,0,Ireland
966,Luxembourg,Luxembourg,49.8153,6.1296,0,2020-01-28,0,0,Luxembourg
967,Monaco,Monaco,43.7333,7.4167,0,2020-01-28,0,0,Monaco
968,Qatar,Qatar,25.3548,51.1839,0,2020-01-28,0,0,Qatar
969,"Portland, OR",United States of America,45.5051,-122.675,0,2020-01-28,0,0,United States of America
970,"Snohomish County, WA",United States of America,48.033,-121.8339,0,2020-01-28,0,0,United States of America
971,Ecuador,Ecuador,-1.8312,-78.1834,0,2020-01-28,0,0,Ecuador
972,Azerbaijan,Azerbaijan,40.1431,47.5769,0,2020-01-28,0,0,Azerbaijan
973,Czech Republic,Czech Republic,49.8175,15.472999999999999,0,2020-01-28,0,0,Czech Republic
974,Armenia,Armenia,40.0691,45.0382,0,2020-01-28,0,0,Armenia
975,Dominican Republic,Dominican Republic,18.7357,-70.1627,0,2020-01-28,0,0,Dominican Republic
976,"Providence, RI",United States of America,41.824,-71.4128,0,2020-01-28,0,0,United States of America
977,"Cook County, IL",United States of America,41.7377,-87.6976,0,2020-01-28,0,0,United States of America
978,Indonesia,Indonesia,-0.7893,113.9213,0,2020-01-28,0,0,Indonesia
979,Portugal,Portugal,39.3999,-8.2245,0,2020-01-28,0,0,Portugal
980,Andorra,Andorra,42.5063,1.5218,0,2020-01-28,0,0,Andorra
981,Tasmania,Australia,-41.4545,145.9707,0,2020-01-28,0,0,Australia
982,Latvia,Latvia,56.8796,24.6032,0,2020-01-28,0,0,Latvia
983,Morocco,Morocco,31.7917,-7.0926,0,2020-01-28,0,0,Morocco
984,Saudi Arabia,Saudi Arabia,24.0,45.0,0,2020-01-28,0,0,Saudi Arabia
985,Senegal,Senegal,14.4974,-14.4524,0,2020-01-28,0,0,Senegal
986,"Grafton County, NH",United States of America,43.9088,-71.82600000000001,0,2020-01-28,0,0,United States of America
987,"Hillsborough, FL",United States of America,27.9904,-82.3018,0,2020-01-28,0,0,United States of America
988,"New York City, NY",United States of America,40.7128,-74.006,0,2020-01-28,0,0,United States of America
989,"Placer County, CA",United States of America,39.0916,-120.8039,0,2020-01-28,0,0,United States of America
990,"San Mateo, CA",United States of America,37.563,-122.3255,0,2020-01-28,0,0,United States of America
991,"Sarasota, FL",United States of America,27.3364,-82.5307,0,2020-01-28,0,0,United States of America
992,"Sonoma County, CA",United States of America,38.578,-122.9888,0,2020-01-28,0,0,United States of America
993,"Umatilla, OR",United States of America,45.775,-118.7606,0,2020-01-28,0,0,United States of America
994,Anhui,China,31.8257,117.2264,152,2020-01-29,2,0,China
995,Beijing,China,40.1824,116.4142,111,2020-01-29,4,1,China
996,Chongqing,China,30.0572,107.874,147,2020-01-29,1,0,China
997,Fujian,China,26.0789,117.9874,84,2020-01-29,0,0,China
998,Gansu,China,36.0611,103.8343,24,2020-01-29,0,0,China
999,Guangdong,China,23.3417,113.4244,277,2020-01-29,5,0,China
1000,Guangxi,China,23.8298,108.7881,58,2020-01-29,2,0,China
1001,Guizhou,China,26.8154,106.8748,9,2020-01-29,1,0,China
1002,Hainan,China,19.1959,109.7453,43,2020-01-29,0,1,China
1003,Hebei,China,38.0428,114.5149,48,2020-01-29,0,1,China
1004,Heilongjiang,China,47.861999999999995,127.7615,38,2020-01-29,0,1,China
1005,Henan,China,33.882020000000004,113.61399999999999,206,2020-01-29,1,2,China
1006,Hubei,China,30.9756,112.2707,3554,2020-01-29,88,125,China
1007,Hunan,China,27.6104,111.7088,221,2020-01-29,0,0,China
1008,Inner Mongolia,China,44.0935,113.9448,16,2020-01-29,0,0,China
1009,Jiangsu,China,32.9711,119.455,99,2020-01-29,1,0,China
1010,Jiangxi,China,27.614,115.7221,109,2020-01-29,3,0,China
1011,Jilin,China,43.6661,126.1923,9,2020-01-29,0,0,China
1012,Liaoning,China,41.2956,122.6085,39,2020-01-29,1,0,China
1013,Ningxia,China,37.2692,106.1655,12,2020-01-29,0,0,China
1014,Qinghai,China,35.7452,95.9956,6,2020-01-29,0,0,China
1015,Shaanxi,China,35.1917,108.8701,56,2020-01-29,0,0,China
1016,Shandong,China,36.3427,118.1498,130,2020-01-29,1,0,China
1017,Shanghai,China,31.201999999999998,121.4491,96,2020-01-29,5,1,China
1018,Shanxi,China,37.5777,112.2922,27,2020-01-29,1,0,China
1019,Sichuan,China,30.6171,102.7103,108,2020-01-29,1,1,China
1020,Tianjin,China,39.3054,117.323,27,2020-01-29,0,0,China
1021,Tibet,China,31.6927,88.0924,0,2020-01-29,0,0,China
1022,Xinjiang,China,41.1129,85.2401,13,2020-01-29,0,0,China
1023,Yunnan,China,24.974,101.48700000000001,55,2020-01-29,0,0,China
1024,Zhejiang,China,29.1832,120.0934,296,2020-01-29,3,0,China
1025,Thailand,Thailand,15.0,101.0,14,2020-01-29,5,0,Thailand
1026,Japan,Japan,36.0,138.0,7,2020-01-29,1,0,Japan
1027,South Korea,South Korea,36.0,128.0,4,2020-01-29,0,0,South Korea
1028,Taiwan,Taiwan,23.7,121.0,8,2020-01-29,0,0,Taiwan
1029,"King County, WA",United States of America,47.6062,-122.3321,1,2020-01-29,0,0,United States of America
1030,"Cook County, IL",United States of America,41.8781,-87.6298,1,2020-01-29,0,0,United States of America
1031,"Tempe, AZ",United States of America,33.4255,-111.94,1,2020-01-29,0,0,United States of America
1032,Macau,Macau,22.1667,113.55,7,2020-01-29,0,0,Macau
1033,Hong Kong,Hong Kong,22.3,114.2,10,2020-01-29,0,0,Hong Kong
1034,Singapore,Singapore,1.2833,103.8333,7,2020-01-29,0,0,Singapore
1035,Vietnam,Vietnam,16.0,108.0,2,2020-01-29,0,0,Vietnam
1036,France,France,47.0,2.0,5,2020-01-29,0,0,France
1037,Nepal,Nepal,28.1667,84.25,1,2020-01-29,0,0,Nepal
1038,Malaysia,Malaysia,2.5,112.5,7,2020-01-29,0,0,Malaysia
1039,"Toronto, ON",Canada,43.6532,-79.3832,1,2020-01-29,0,0,Canada
1040,British Columbia,Canada,49.2827,-123.1207,1,2020-01-29,0,0,Canada
1041,"Orange, CA",United States of America,33.7879,-117.8531,1,2020-01-29,0,0,United States of America
1042,"Los Angeles, CA",United States of America,34.0522,-118.2437,1,2020-01-29,0,0,United States of America
1043,New South Wales,Australia,-33.8688,151.2093,4,2020-01-29,0,0,Australia
1044,Victoria,Australia,-37.8136,144.9631,1,2020-01-29,0,0,Australia
1045,Queensland,Australia,-28.0167,153.4,1,2020-01-29,0,0,Australia
1046,Cambodia,Cambodia,11.55,104.9167,1,2020-01-29,0,0,Cambodia
1047,Sri Lanka,Sri Lanka,7.0,81.0,1,2020-01-29,0,0,Sri Lanka
1048,Germany,Germany,51.0,9.0,4,2020-01-29,0,0,Germany
1049,Finland,Finland,64.0,26.0,1,2020-01-29,0,0,Finland
1050,United Arab Emirates,United Arab Emirates,24.0,54.0,4,2020-01-29,0,0,United Arab Emirates
1051,Philippines,Philippines,13.0,122.0,0,2020-01-29,0,0,Philippines
1052,India,India,21.0,78.0,0,2020-01-29,0,0,India
1053,"London, ON",Canada,42.9849,-81.2453,0,2020-01-29,0,0,Canada
1054,Italy,Italy,43.0,12.0,0,2020-01-29,0,0,Italy
1055,UK,UK,55.0,-3.0,0,2020-01-29,0,0,UK
1056,Russia,Russia,60.0,90.0,0,2020-01-29,0,0,Russia
1057,Sweden,Sweden,63.0,16.0,0,2020-01-29,0,0,Sweden
1058,"Santa Clara, CA",United States of America,37.3541,-121.9552,0,2020-01-29,0,0,United States of America
1059,Spain,Spain,40.0,-4.0,0,2020-01-29,0,0,Spain
1060,South Australia,Australia,-34.9285,138.6007,0,2020-01-29,0,0,Australia
1061,"Boston, MA",United States of America,42.3601,-71.0589,0,2020-01-29,0,0,United States of America
1062,"San Benito, CA",United States of America,36.5761,-120.9876,0,2020-01-29,0,0,United States of America
1063,Belgium,Belgium,50.8333,4.0,0,2020-01-29,0,0,Belgium
1064,"Madison, WI",United States of America,43.0731,-89.4012,0,2020-01-29,0,0,United States of America
1065,Diamond Princess cruise ship,Others,35.4437,139.638,0,2020-01-29,0,0,Others
1066,"San Diego County, CA",United States of America,32.7157,-117.1611,0,2020-01-29,0,0,United States of America
1067,"San Antonio, TX",United States of America,29.4241,-98.4936,0,2020-01-29,0,0,United States of America
1068,Egypt,Egypt,26.0,30.0,0,2020-01-29,0,0,Egypt
1069,Iran,Iran,32.0,53.0,0,2020-01-29,0,0,Iran
1070,"Omaha, NE (From Diamond Princess)",United States of America,41.2545,-95.9758,0,2020-01-29,0,0,United States of America
1071,"Travis, CA (From Diamond Princess)",United States of America,38.2721,-121.9399,0,2020-01-29,0,0,United States of America
1072,From Diamond Princess,Australia,35.4437,139.638,0,2020-01-29,0,0,Australia
1073,"Lackland, TX (From Diamond Princess)",United States of America,29.3829,-98.6134,0,2020-01-29,0,0,United States of America
1074,Lebanon,Lebanon,33.8547,35.8623,0,2020-01-29,0,0,Lebanon
1075,"Humboldt County, CA",United States of America,40.745,-123.8695,0,2020-01-29,0,0,United States of America
1076,"Sacramento County, CA",United States of America,38.4747,-121.3542,0,2020-01-29,0,0,United States of America
1077,Iraq,Iraq,33.0,44.0,0,2020-01-29,0,0,Iraq
1078,Unassigned Location (From Diamond Princess),United States of America,35.4437,139.638,0,2020-01-29,0,0,United States of America
1079,Oman,Oman,21.0,57.0,0,2020-01-29,0,0,Oman
1080,Afghanistan,Afghanistan,33.0,65.0,0,2020-01-29,0,0,Afghanistan
1081,Bahrain,Bahrain,26.0275,50.55,0,2020-01-29,0,0,Bahrain
1082,Kuwait,Kuwait,29.5,47.75,0,2020-01-29,0,0,Kuwait
1083,Algeria,Algeria,28.0339,1.6596,0,2020-01-29,0,0,Algeria
1084,Croatia,Croatia,45.1,15.2,0,2020-01-29,0,0,Croatia
1085,Switzerland,Switzerland,46.8182,8.2275,0,2020-01-29,0,0,Switzerland
1086,Austria,Austria,47.5162,14.5501,0,2020-01-29,0,0,Austria
1087,Israel,Israel,31.0,35.0,0,2020-01-29,0,0,Israel
1088,Pakistan,Pakistan,30.3753,69.3451,0,2020-01-29,0,0,Pakistan
1089,Brazil,Brazil,-14.235,-51.9253,0,2020-01-29,0,0,Brazil
1090,Georgia,Georgia,42.3154,43.3569,0,2020-01-29,0,0,Georgia
1091,Greece,Greece,39.0742,21.8243,0,2020-01-29,0,0,Greece
1092,North Macedonia,North Macedonia,41.6086,21.7453,0,2020-01-29,0,0,North Macedonia
1093,Norway,Norway,60.472,8.4689,0,2020-01-29,0,0,Norway
1094,Romania,Romania,45.9432,24.9668,0,2020-01-29,0,0,Romania
1095,Denmark,Denmark,56.2639,9.5018,0,2020-01-29,0,0,Denmark
1096,Estonia,Estonia,58.5953,25.0136,0,2020-01-29,0,0,Estonia
1097,Netherlands,Netherlands,52.1326,5.2913,0,2020-01-29,0,0,Netherlands
1098,San Marino,San Marino,43.9424,12.4578,0,2020-01-29,0,0,San Marino
1099,Belarus,Belarus,53.7098,27.9534,0,2020-01-29,0,0,Belarus
1100," Montreal, QC",Canada,45.5017,-73.5673,0,2020-01-29,0,0,Canada
1101,Iceland,Iceland,64.9631,-19.0208,0,2020-01-29,0,0,Iceland
1102,Lithuania,Lithuania,55.1694,23.8813,0,2020-01-29,0,0,Lithuania
1103,Mexico,Mexico,23.6345,-102.5528,0,2020-01-29,0,0,Mexico
1104,New Zealand,New Zealand,-40.9006,174.886,0,2020-01-29,0,0,New Zealand
1105,Nigeria,Nigeria,9.082,8.6753,0,2020-01-29,0,0,Nigeria
1106,Western Australia,Australia,-31.9505,115.8605,0,2020-01-29,0,0,Australia
1107,Ireland,Ireland,53.1424,-7.6921,0,2020-01-29,0,0,Ireland
1108,Luxembourg,Luxembourg,49.8153,6.1296,0,2020-01-29,0,0,Luxembourg
1109,Monaco,Monaco,43.7333,7.4167,0,2020-01-29,0,0,Monaco
1110,Qatar,Qatar,25.3548,51.1839,0,2020-01-29,0,0,Qatar
1111,"Portland, OR",United States of America,45.5051,-122.675,0,2020-01-29,0,0,United States of America
1112,"Snohomish County, WA",United States of America,48.033,-121.8339,0,2020-01-29,0,0,United States of America
1113,Ecuador,Ecuador,-1.8312,-78.1834,0,2020-01-29,0,0,Ecuador
1114,Azerbaijan,Azerbaijan,40.1431,47.5769,0,2020-01-29,0,0,Azerbaijan
1115,Czech Republic,Czech Republic,49.8175,15.472999999999999,0,2020-01-29,0,0,Czech Republic
1116,Armenia,Armenia,40.0691,45.0382,0,2020-01-29,0,0,Armenia
1117,Dominican Republic,Dominican Republic,18.7357,-70.1627,0,2020-01-29,0,0,Dominican Republic
1118,"Providence, RI",United States of America,41.824,-71.4128,0,2020-01-29,0,0,United States of America
1119,"Cook County, IL",United States of America,41.7377,-87.6976,0,2020-01-29,0,0,United States of America
1120,Indonesia,Indonesia,-0.7893,113.9213,0,2020-01-29,0,0,Indonesia
1121,Portugal,Portugal,39.3999,-8.2245,0,2020-01-29,0,0,Portugal
1122,Andorra,Andorra,42.5063,1.5218,0,2020-01-29,0,0,Andorra
1123,Tasmania,Australia,-41.4545,145.9707,0,2020-01-29,0,0,Australia
1124,Latvia,Latvia,56.8796,24.6032,0,2020-01-29,0,0,Latvia
1125,Morocco,Morocco,31.7917,-7.0926,0,2020-01-29,0,0,Morocco
1126,Saudi Arabia,Saudi Arabia,24.0,45.0,0,2020-01-29,0,0,Saudi Arabia
1127,Senegal,Senegal,14.4974,-14.4524,0,2020-01-29,0,0,Senegal
1128,"Grafton County, NH",United States of America,43.9088,-71.82600000000001,0,2020-01-29,0,0,United States of America
1129,"Hillsborough, FL",United States of America,27.9904,-82.3018,0,2020-01-29,0,0,United States of America
1130,"New York City, NY",United States of America,40.7128,-74.006,0,2020-01-29,0,0,United States of America
1131,"Placer County, CA",United States of America,39.0916,-120.8039,0,2020-01-29,0,0,United States of America
1132,"San Mateo, CA",United States of America,37.563,-122.3255,0,2020-01-29,0,0,United States of America
1133,"Sarasota, FL",United States of America,27.3364,-82.5307,0,2020-01-29,0,0,United States of America
1134,"Sonoma County, CA",United States of America,38.578,-122.9888,0,2020-01-29,0,0,United States of America
1135,"Umatilla, OR",United States of America,45.775,-118.7606,0,2020-01-29,0,0,United States of America
1136,Anhui,China,31.8257,117.2264,200,2020-01-30,2,0,China
1137,Beijing,China,40.1824,116.4142,114,2020-01-30,4,1,China
1138,Chongqing,China,30.0572,107.874,182,2020-01-30,1,0,China
1139,Fujian,China,26.0789,117.9874,101,2020-01-30,0,0,China
1140,Gansu,China,36.0611,103.8343,26,2020-01-30,0,0,China
1141,Guangdong,China,23.3417,113.4244,354,2020-01-30,10,0,China
1142,Guangxi,China,23.8298,108.7881,78,2020-01-30,2,0,China
1143,Guizhou,China,26.8154,106.8748,12,2020-01-30,1,0,China
1144,Hainan,China,19.1959,109.7453,46,2020-01-30,1,1,China
1145,Hebei,China,38.0428,114.5149,65,2020-01-30,0,1,China
1146,Heilongjiang,China,47.861999999999995,127.7615,44,2020-01-30,0,2,China
1147,Henan,China,33.882020000000004,113.61399999999999,278,2020-01-30,2,2,China
1148,Hubei,China,30.9756,112.2707,4903,2020-01-30,90,162,China
1149,Hunan,China,27.6104,111.7088,277,2020-01-30,2,0,China
1150,Inner Mongolia,China,44.0935,113.9448,19,2020-01-30,0,0,China
1151,Jiangsu,China,32.9711,119.455,129,2020-01-30,1,0,China
1152,Jiangxi,China,27.614,115.7221,162,2020-01-30,5,0,China
1153,Jilin,China,43.6661,126.1923,14,2020-01-30,1,0,China
1154,Liaoning,China,41.2956,122.6085,41,2020-01-30,1,0,China
1155,Ningxia,China,37.2692,106.1655,17,2020-01-30,0,0,China
1156,Qinghai,China,35.7452,95.9956,8,2020-01-30,0,0,China
1157,Shaanxi,China,35.1917,108.8701,63,2020-01-30,0,0,China
1158,Shandong,China,36.3427,118.1498,158,2020-01-30,1,0,China
1159,Shanghai,China,31.201999999999998,121.4491,112,2020-01-30,5,1,China
1160,Shanxi,China,37.5777,112.2922,35,2020-01-30,1,0,China
1161,Sichuan,China,30.6171,102.7103,142,2020-01-30,1,1,China
1162,Tianjin,China,39.3054,117.323,31,2020-01-30,0,0,China
1163,Tibet,China,31.6927,88.0924,1,2020-01-30,0,0,China
1164,Xinjiang,China,41.1129,85.2401,14,2020-01-30,0,0,China
1165,Yunnan,China,24.974,101.48700000000001,70,2020-01-30,0,0,China
1166,Zhejiang,China,29.1832,120.0934,428,2020-01-30,4,0,China
1167,Thailand,Thailand,15.0,101.0,14,2020-01-30,5,0,Thailand
1168,Japan,Japan,36.0,138.0,11,2020-01-30,1,0,Japan
1169,South Korea,South Korea,36.0,128.0,4,2020-01-30,0,0,South Korea
1170,Taiwan,Taiwan,23.7,121.0,9,2020-01-30,0,0,Taiwan
1171,"King County, WA",United States of America,47.6062,-122.3321,1,2020-01-30,0,0,United States of America
1172,"Cook County, IL",United States of America,41.8781,-87.6298,1,2020-01-30,0,0,United States of America
1173,"Tempe, AZ",United States of America,33.4255,-111.94,1,2020-01-30,0,0,United States of America
1174,Macau,Macau,22.1667,113.55,7,2020-01-30,0,0,Macau
1175,Hong Kong,Hong Kong,22.3,114.2,10,2020-01-30,0,0,Hong Kong
1176,Singapore,Singapore,1.2833,103.8333,10,2020-01-30,0,0,Singapore
1177,Vietnam,Vietnam,16.0,108.0,2,2020-01-30,0,0,Vietnam
1178,France,France,47.0,2.0,5,2020-01-30,0,0,France
1179,Nepal,Nepal,28.1667,84.25,1,2020-01-30,0,0,Nepal
1180,Malaysia,Malaysia,2.5,112.5,8,2020-01-30,0,0,Malaysia
1181,"Toronto, ON",Canada,43.6532,-79.3832,1,2020-01-30,0,0,Canada
1182,British Columbia,Canada,49.2827,-123.1207,1,2020-01-30,0,0,Canada
1183,"Orange, CA",United States of America,33.7879,-117.8531,1,2020-01-30,0,0,United States of America
1184,"Los Angeles, CA",United States of America,34.0522,-118.2437,1,2020-01-30,0,0,United States of America
1185,New South Wales,Australia,-33.8688,151.2093,4,2020-01-30,2,0,Australia
1186,Victoria,Australia,-37.8136,144.9631,2,2020-01-30,0,0,Australia
1187,Queensland,Australia,-28.0167,153.4,3,2020-01-30,0,0,Australia
1188,Cambodia,Cambodia,11.55,104.9167,1,2020-01-30,0,0,Cambodia
1189,Sri Lanka,Sri Lanka,7.0,81.0,1,2020-01-30,0,0,Sri Lanka
1190,Germany,Germany,51.0,9.0,4,2020-01-30,0,0,Germany
1191,Finland,Finland,64.0,26.0,1,2020-01-30,0,0,Finland
1192,United Arab Emirates,United Arab Emirates,24.0,54.0,4,2020-01-30,0,0,United Arab Emirates
1193,Philippines,Philippines,13.0,122.0,1,2020-01-30,0,0,Philippines
1194,India,India,21.0,78.0,1,2020-01-30,0,0,India
1195,"London, ON",Canada,42.9849,-81.2453,0,2020-01-30,0,0,Canada
1196,Italy,Italy,43.0,12.0,0,2020-01-30,0,0,Italy
1197,UK,UK,55.0,-3.0,0,2020-01-30,0,0,UK
1198,Russia,Russia,60.0,90.0,0,2020-01-30,0,0,Russia
1199,Sweden,Sweden,63.0,16.0,0,2020-01-30,0,0,Sweden
1200,"Santa Clara, CA",United States of America,37.3541,-121.9552,0,2020-01-30,0,0,United States of America
1201,Spain,Spain,40.0,-4.0,0,2020-01-30,0,0,Spain
1202,South Australia,Australia,-34.9285,138.6007,0,2020-01-30,0,0,Australia
1203,"Boston, MA",United States of America,42.3601,-71.0589,0,2020-01-30,0,0,United States of America
1204,"San Benito, CA",United States of America,36.5761,-120.9876,0,2020-01-30,0,0,United States of America
1205,Belgium,Belgium,50.8333,4.0,0,2020-01-30,0,0,Belgium
1206,"Madison, WI",United States of America,43.0731,-89.4012,0,2020-01-30,0,0,United States of America
1207,Diamond Princess cruise ship,Others,35.4437,139.638,0,2020-01-30,0,0,Others
1208,"San Diego County, CA",United States of America,32.7157,-117.1611,0,2020-01-30,0,0,United States of America
1209,"San Antonio, TX",United States of America,29.4241,-98.4936,0,2020-01-30,0,0,United States of America
1210,Egypt,Egypt,26.0,30.0,0,2020-01-30,0,0,Egypt
1211,Iran,Iran,32.0,53.0,0,2020-01-30,0,0,Iran
1212,"Omaha, NE (From Diamond Princess)",United States of America,41.2545,-95.9758,0,2020-01-30,0,0,United States of America
1213,"Travis, CA (From Diamond Princess)",United States of America,38.2721,-121.9399,0,2020-01-30,0,0,United States of America
1214,From Diamond Princess,Australia,35.4437,139.638,0,2020-01-30,0,0,Australia
1215,"Lackland, TX (From Diamond Princess)",United States of America,29.3829,-98.6134,0,2020-01-30,0,0,United States of America
1216,Lebanon,Lebanon,33.8547,35.8623,0,2020-01-30,0,0,Lebanon
1217,"Humboldt County, CA",United States of America,40.745,-123.8695,0,2020-01-30,0,0,United States of America
1218,"Sacramento County, CA",United States of America,38.4747,-121.3542,0,2020-01-30,0,0,United States of America
1219,Iraq,Iraq,33.0,44.0,0,2020-01-30,0,0,Iraq
1220,Unassigned Location (From Diamond Princess),United States of America,35.4437,139.638,0,2020-01-30,0,0,United States of America
1221,Oman,Oman,21.0,57.0,0,2020-01-30,0,0,Oman
1222,Afghanistan,Afghanistan,33.0,65.0,0,2020-01-30,0,0,Afghanistan
1223,Bahrain,Bahrain,26.0275,50.55,0,2020-01-30,0,0,Bahrain
1224,Kuwait,Kuwait,29.5,47.75,0,2020-01-30,0,0,Kuwait
1225,Algeria,Algeria,28.0339,1.6596,0,2020-01-30,0,0,Algeria
1226,Croatia,Croatia,45.1,15.2,0,2020-01-30,0,0,Croatia
1227,Switzerland,Switzerland,46.8182,8.2275,0,2020-01-30,0,0,Switzerland
1228,Austria,Austria,47.5162,14.5501,0,2020-01-30,0,0,Austria
1229,Israel,Israel,31.0,35.0,0,2020-01-30,0,0,Israel
1230,Pakistan,Pakistan,30.3753,69.3451,0,2020-01-30,0,0,Pakistan
1231,Brazil,Brazil,-14.235,-51.9253,0,2020-01-30,0,0,Brazil
1232,Georgia,Georgia,42.3154,43.3569,0,2020-01-30,0,0,Georgia
1233,Greece,Greece,39.0742,21.8243,0,2020-01-30,0,0,Greece
1234,North Macedonia,North Macedonia,41.6086,21.7453,0,2020-01-30,0,0,North Macedonia
1235,Norway,Norway,60.472,8.4689,0,2020-01-30,0,0,Norway
1236,Romania,Romania,45.9432,24.9668,0,2020-01-30,0,0,Romania
1237,Denmark,Denmark,56.2639,9.5018,0,2020-01-30,0,0,Denmark
1238,Estonia,Estonia,58.5953,25.0136,0,2020-01-30,0,0,Estonia
1239,Netherlands,Netherlands,52.1326,5.2913,0,2020-01-30,0,0,Netherlands
1240,San Marino,San Marino,43.9424,12.4578,0,2020-01-30,0,0,San Marino
1241,Belarus,Belarus,53.7098,27.9534,0,2020-01-30,0,0,Belarus
1242," Montreal, QC",Canada,45.5017,-73.5673,0,2020-01-30,0,0,Canada
1243,Iceland,Iceland,64.9631,-19.0208,0,2020-01-30,0,0,Iceland
1244,Lithuania,Lithuania,55.1694,23.8813,0,2020-01-30,0,0,Lithuania
1245,Mexico,Mexico,23.6345,-102.5528,0,2020-01-30,0,0,Mexico
1246,New Zealand,New Zealand,-40.9006,174.886,0,2020-01-30,0,0,New Zealand
1247,Nigeria,Nigeria,9.082,8.6753,0,2020-01-30,0,0,Nigeria
1248,Western Australia,Australia,-31.9505,115.8605,0,2020-01-30,0,0,Australia
1249,Ireland,Ireland,53.1424,-7.6921,0,2020-01-30,0,0,Ireland
1250,Luxembourg,Luxembourg,49.8153,6.1296,0,2020-01-30,0,0,Luxembourg
1251,Monaco,Monaco,43.7333,7.4167,0,2020-01-30,0,0,Monaco
1252,Qatar,Qatar,25.3548,51.1839,0,2020-01-30,0,0,Qatar
1253,"Portland, OR",United States of America,45.5051,-122.675,0,2020-01-30,0,0,United States of America
1254,"Snohomish County, WA",United States of America,48.033,-121.8339,0,2020-01-30,0,0,United States of America
1255,Ecuador,Ecuador,-1.8312,-78.1834,0,2020-01-30,0,0,Ecuador
1256,Azerbaijan,Azerbaijan,40.1431,47.5769,0,2020-01-30,0,0,Azerbaijan
1257,Czech Republic,Czech Republic,49.8175,15.472999999999999,0,2020-01-30,0,0,Czech Republic
1258,Armenia,Armenia,40.0691,45.0382,0,2020-01-30,0,0,Armenia
1259,Dominican Republic,Dominican Republic,18.7357,-70.1627,0,2020-01-30,0,0,Dominican Republic
1260,"Providence, RI",United States of America,41.824,-71.4128,0,2020-01-30,0,0,United States of America
1261,"Cook County, IL",United States of America,41.7377,-87.6976,0,2020-01-30,0,0,United States of America
1262,Indonesia,Indonesia,-0.7893,113.9213,0,2020-01-30,0,0,Indonesia
1263,Portugal,Portugal,39.3999,-8.2245,0,2020-01-30,0,0,Portugal
1264,Andorra,Andorra,42.5063,1.5218,0,2020-01-30,0,0,Andorra
1265,Tasmania,Australia,-41.4545,145.9707,0,2020-01-30,0,0,Australia
1266,Latvia,Latvia,56.8796,24.6032,0,2020-01-30,0,0,Latvia
1267,Morocco,Morocco,31.7917,-7.0926,0,2020-01-30,0,0,Morocco
1268,Saudi Arabia,Saudi Arabia,24.0,45.0,0,2020-01-30,0,0,Saudi Arabia
1269,Senegal,Senegal,14.4974,-14.4524,0,2020-01-30,0,0,Senegal
1270,"Grafton County, NH",United States of America,43.9088,-71.82600000000001,0,2020-01-30,0,0,United States of America
1271,"Hillsborough, FL",United States of America,27.9904,-82.3018,0,2020-01-30,0,0,United States of America
1272,"New York City, NY",United States of America,40.7128,-74.006,0,2020-01-30,0,0,United States of America
1273,"Placer County, CA",United States of America,39.0916,-120.8039,0,2020-01-30,0,0,United States of America
1274,"San Mateo, CA",United States of America,37.563,-122.3255,0,2020-01-30,0,0,United States of America
1275,"Sarasota, FL",United States of America,27.3364,-82.5307,0,2020-01-30,0,0,United States of America
1276,"Sonoma County, CA",United States of America,38.578,-122.9888,0,2020-01-30,0,0,United States of America
1277,"Umatilla, OR",United States of America,45.775,-118.7606,0,2020-01-30,0,0,United States of America
1278,Anhui,China,31.8257,117.2264,237,2020-01-31,3,0,China
1279,Beijing,China,40.1824,116.4142,139,2020-01-31,5,1,China
1280,Chongqing,China,30.0572,107.874,211,2020-01-31,1,0,China
1281,Fujian,China,26.0789,117.9874,120,2020-01-31,0,0,China
1282,Gansu,China,36.0611,103.8343,29,2020-01-31,0,0,China
1283,Guangdong,China,23.3417,113.4244,436,2020-01-31,11,0,China
1284,Guangxi,China,23.8298,108.7881,87,2020-01-31,2,0,China
1285,Guizhou,China,26.8154,106.8748,29,2020-01-31,2,0,China
1286,Hainan,China,19.1959,109.7453,52,2020-01-31,1,1,China
1287,Hebei,China,38.0428,114.5149,82,2020-01-31,0,1,China
1288,Heilongjiang,China,47.861999999999995,127.7615,59,2020-01-31,0,2,China
1289,Henan,China,33.882020000000004,113.61399999999999,352,2020-01-31,3,2,China
1290,Hubei,China,30.9756,112.2707,5806,2020-01-31,141,204,China
1291,Hunan,China,27.6104,111.7088,332,2020-01-31,2,0,China
1292,Inner Mongolia,China,44.0935,113.9448,20,2020-01-31,1,0,China
1293,Jiangsu,China,32.9711,119.455,168,2020-01-31,5,0,China
1294,Jiangxi,China,27.614,115.7221,240,2020-01-31,7,0,China
1295,Jilin,China,43.6661,126.1923,14,2020-01-31,1,0,China
1296,Liaoning,China,41.2956,122.6085,48,2020-01-31,1,0,China
1297,Ningxia,China,37.2692,106.1655,21,2020-01-31,0,0,China
1298,Qinghai,China,35.7452,95.9956,8,2020-01-31,0,0,China
1299,Shaanxi,China,35.1917,108.8701,87,2020-01-31,0,0,China
1300,Shandong,China,36.3427,118.1498,184,2020-01-31,2,0,China
1301,Shanghai,China,31.201999999999998,121.4491,135,2020-01-31,9,1,China
1302,Shanxi,China,37.5777,112.2922,39,2020-01-31,1,0,China
1303,Sichuan,China,30.6171,102.7103,177,2020-01-31,1,1,China
1304,Tianjin,China,39.3054,117.323,32,2020-01-31,0,0,China
1305,Tibet,China,31.6927,88.0924,1,2020-01-31,0,0,China
1306,Xinjiang,China,41.1129,85.2401,17,2020-01-31,0,0,China
1307,Yunnan,China,24.974,101.48700000000001,83,2020-01-31,1,0,China
1308,Zhejiang,China,29.1832,120.0934,538,2020-01-31,14,0,China
1309,Thailand,Thailand,15.0,101.0,19,2020-01-31,5,0,Thailand
1310,Japan,Japan,36.0,138.0,15,2020-01-31,1,0,Japan
1311,South Korea,South Korea,36.0,128.0,11,2020-01-31,0,0,South Korea
1312,Taiwan,Taiwan,23.7,121.0,10,2020-01-31,0,0,Taiwan
1313,"King County, WA",United States of America,47.6062,-122.3321,1,2020-01-31,0,0,United States of America
1314,"Cook County, IL",United States of America,41.8781,-87.6298,2,2020-01-31,0,0,United States of America
1315,"Tempe, AZ",United States of America,33.4255,-111.94,1,2020-01-31,0,0,United States of America
1316,Macau,Macau,22.1667,113.55,7,2020-01-31,0,0,Macau
1317,Hong Kong,Hong Kong,22.3,114.2,12,2020-01-31,0,0,Hong Kong
1318,Singapore,Singapore,1.2833,103.8333,13,2020-01-31,0,0,Singapore
1319,Vietnam,Vietnam,16.0,108.0,2,2020-01-31,0,0,Vietnam
1320,France,France,47.0,2.0,5,2020-01-31,0,0,France
1321,Nepal,Nepal,28.1667,84.25,1,2020-01-31,0,0,Nepal
1322,Malaysia,Malaysia,2.5,112.5,8,2020-01-31,0,0,Malaysia
1323,"Toronto, ON",Canada,43.6532,-79.3832,2,2020-01-31,0,0,Canada
1324,British Columbia,Canada,49.2827,-123.1207,1,2020-01-31,0,0,Canada
1325,"Orange, CA",United States of America,33.7879,-117.8531,1,2020-01-31,0,0,United States of America
1326,"Los Angeles, CA",United States of America,34.0522,-118.2437,1,2020-01-31,0,0,United States of America
1327,New South Wales,Australia,-33.8688,151.2093,4,2020-01-31,2,0,Australia
1328,Victoria,Australia,-37.8136,144.9631,3,2020-01-31,0,0,Australia
1329,Queensland,Australia,-28.0167,153.4,2,2020-01-31,0,0,Australia
1330,Cambodia,Cambodia,11.55,104.9167,1,2020-01-31,0,0,Cambodia
1331,Sri Lanka,Sri Lanka,7.0,81.0,1,2020-01-31,0,0,Sri Lanka
1332,Germany,Germany,51.0,9.0,5,2020-01-31,0,0,Germany
1333,Finland,Finland,64.0,26.0,1,2020-01-31,0,0,Finland
1334,United Arab Emirates,United Arab Emirates,24.0,54.0,4,2020-01-31,0,0,United Arab Emirates
1335,Philippines,Philippines,13.0,122.0,1,2020-01-31,0,0,Philippines
1336,India,India,21.0,78.0,1,2020-01-31,0,0,India
1337,"London, ON",Canada,42.9849,-81.2453,1,2020-01-31,0,0,Canada
1338,Italy,Italy,43.0,12.0,2,2020-01-31,0,0,Italy
1339,UK,UK,55.0,-3.0,2,2020-01-31,0,0,UK
1340,Russia,Russia,60.0,90.0,2,2020-01-31,0,0,Russia
1341,Sweden,Sweden,63.0,16.0,1,2020-01-31,0,0,Sweden
1342,"Santa Clara, CA",United States of America,37.3541,-121.9552,1,2020-01-31,0,0,United States of America
1343,Spain,Spain,40.0,-4.0,0,2020-01-31,0,0,Spain
1344,South Australia,Australia,-34.9285,138.6007,0,2020-01-31,0,0,Australia
1345,"Boston, MA",United States of America,42.3601,-71.0589,0,2020-01-31,0,0,United States of America
1346,"San Benito, CA",United States of America,36.5761,-120.9876,0,2020-01-31,0,0,United States of America
1347,Belgium,Belgium,50.8333,4.0,0,2020-01-31,0,0,Belgium
1348,"Madison, WI",United States of America,43.0731,-89.4012,0,2020-01-31,0,0,United States of America
1349,Diamond Princess cruise ship,Others,35.4437,139.638,0,2020-01-31,0,0,Others
1350,"San Diego County, CA",United States of America,32.7157,-117.1611,0,2020-01-31,0,0,United States of America
1351,"San Antonio, TX",United States of America,29.4241,-98.4936,0,2020-01-31,0,0,United States of America
1352,Egypt,Egypt,26.0,30.0,0,2020-01-31,0,0,Egypt
1353,Iran,Iran,32.0,53.0,0,2020-01-31,0,0,Iran
1354,"Omaha, NE (From Diamond Princess)",United States of America,41.2545,-95.9758,0,2020-01-31,0,0,United States of America
1355,"Travis, CA (From Diamond Princess)",United States of America,38.2721,-121.9399,0,2020-01-31,0,0,United States of America
1356,From Diamond Princess,Australia,35.4437,139.638,0,2020-01-31,0,0,Australia
1357,"Lackland, TX (From Diamond Princess)",United States of America,29.3829,-98.6134,0,2020-01-31,0,0,United States of America
1358,Lebanon,Lebanon,33.8547,35.8623,0,2020-01-31,0,0,Lebanon
1359,"Humboldt County, CA",United States of America,40.745,-123.8695,0,2020-01-31,0,0,United States of America
1360,"Sacramento County, CA",United States of America,38.4747,-121.3542,0,2020-01-31,0,0,United States of America
1361,Iraq,Iraq,33.0,44.0,0,2020-01-31,0,0,Iraq
1362,Unassigned Location (From Diamond Princess),United States of America,35.4437,139.638,0,2020-01-31,0,0,United States of America
1363,Oman,Oman,21.0,57.0,0,2020-01-31,0,0,Oman
1364,Afghanistan,Afghanistan,33.0,65.0,0,2020-01-31,0,0,Afghanistan
1365,Bahrain,Bahrain,26.0275,50.55,0,2020-01-31,0,0,Bahrain
1366,Kuwait,Kuwait,29.5,47.75,0,2020-01-31,0,0,Kuwait
1367,Algeria,Algeria,28.0339,1.6596,0,2020-01-31,0,0,Algeria
1368,Croatia,Croatia,45.1,15.2,0,2020-01-31,0,0,Croatia
1369,Switzerland,Switzerland,46.8182,8.2275,0,2020-01-31,0,0,Switzerland
1370,Austria,Austria,47.5162,14.5501,0,2020-01-31,0,0,Austria
1371,Israel,Israel,31.0,35.0,0,2020-01-31,0,0,Israel
1372,Pakistan,Pakistan,30.3753,69.3451,0,2020-01-31,0,0,Pakistan
1373,Brazil,Brazil,-14.235,-51.9253,0,2020-01-31,0,0,Brazil
1374,Georgia,Georgia,42.3154,43.3569,0,2020-01-31,0,0,Georgia
1375,Greece,Greece,39.0742,21.8243,0,2020-01-31,0,0,Greece
1376,North Macedonia,North Macedonia,41.6086,21.7453,0,2020-01-31,0,0,North Macedonia
1377,Norway,Norway,60.472,8.4689,0,2020-01-31,0,0,Norway
1378,Romania,Romania,45.9432,24.9668,0,2020-01-31,0,0,Romania
1379,Denmark,Denmark,56.2639,9.5018,0,2020-01-31,0,0,Denmark
1380,Estonia,Estonia,58.5953,25.0136,0,2020-01-31,0,0,Estonia
1381,Netherlands,Netherlands,52.1326,5.2913,0,2020-01-31,0,0,Netherlands
1382,San Marino,San Marino,43.9424,12.4578,0,2020-01-31,0,0,San Marino
1383,Belarus,Belarus,53.7098,27.9534,0,2020-01-31,0,0,Belarus
1384," Montreal, QC",Canada,45.5017,-73.5673,0,2020-01-31,0,0,Canada
1385,Iceland,Iceland,64.9631,-19.0208,0,2020-01-31,0,0,Iceland
1386,Lithuania,Lithuania,55.1694,23.8813,0,2020-01-31,0,0,Lithuania
1387,Mexico,Mexico,23.6345,-102.5528,0,2020-01-31,0,0,Mexico
1388,New Zealand,New Zealand,-40.9006,174.886,0,2020-01-31,0,0,New Zealand
1389,Nigeria,Nigeria,9.082,8.6753,0,2020-01-31,0,0,Nigeria
1390,Western Australia,Australia,-31.9505,115.8605,0,2020-01-31,0,0,Australia
1391,Ireland,Ireland,53.1424,-7.6921,0,2020-01-31,0,0,Ireland
1392,Luxembourg,Luxembourg,49.8153,6.1296,0,2020-01-31,0,0,Luxembourg
1393,Monaco,Monaco,43.7333,7.4167,0,2020-01-31,0,0,Monaco
1394,Qatar,Qatar,25.3548,51.1839,0,2020-01-31,0,0,Qatar
1395,"Portland, OR",United States of America,45.5051,-122.675,0,2020-01-31,0,0,United States of America
1396,"Snohomish County, WA",United States of America,48.033,-121.8339,0,2020-01-31,0,0,United States of America
